{"type":"FeatureCollection","features":[{"type":"Feature","properties":{"@id":"node/4603907892","shop":"computer"},"geometry":{"type":"Point","coordinates":[102.369895,3.9359452]},"id":"node/4603907892"},{"type":"Feature","properties":{"@id":"node/4603907893","amenity":"restaurant","name":"Samsida Recipe","name:en":"Samsida Recipe"},"geometry":{"type":"Point","coordinates":[102.3659969,3.9375779]},"id":"node/4603907893"},{"type":"Feature","properties":{"@id":"node/4603908089","addr:city":"Cameron Highlands","addr:place":"Kampung Taman Sedia","cafe":"yes","name":"Ros Chalet Strawberry Farm","shop":"farm"},"geometry":{"type":"Point","coordinates":[101.3816691,4.4779055]},"id":"node/4603908089"},{"type":"Feature","properties":{"@id":"node/4603908091","amenity":"fuel","brand":"Shell","brand:wikidata":"Q110716465","brand:wikipedia":"en:Shell plc","name":"Shell","name:en":"Shell","operator":"Shell"},"geometry":{"type":"Point","coordinates":[102.3750963,3.9335581]},"id":"node/4603908091"},{"type":"Feature","properties":{"@id":"node/4603908092","amenity":"fast_food","brand":"Domino's","brand:wikidata":"Q839466","brand:wikipedia":"en:Domino's Pizza","cuisine":"pizza","name":"Domino's","name:en":"Domino's pizza","operator":"Domino's pizza","takeaway":"yes"},"geometry":{"type":"Point","coordinates":[102.3682653,3.9371316]},"id":"node/4603908092"},{"type":"Feature","properties":{"@id":"node/4603908093","amenity":"fuel","brand":"Caltex","brand:wikidata":"Q277470","brand:wikipedia":"en:Caltex","name":"Caltex","name:en":"Caltex","operator":"Caltex"},"geometry":{"type":"Point","coordinates":[102.3668637,3.9370256]},"id":"node/4603908093"},{"type":"Feature","properties":{"@id":"node/4603908095","shop":"clothes"},"geometry":{"type":"Point","coordinates":[102.3657396,3.9376777]},"id":"node/4603908095"},{"type":"Feature","properties":{"@id":"node/4603908096","name":"Able laundry","name:en":"Able laundry","opening_hours":"24/7","shop":"laundry"},"geometry":{"type":"Point","coordinates":[102.3639245,3.9373723]},"id":"node/4603908096"},{"type":"Feature","properties":{"@id":"node/4603908097","amenity":"restaurant","name":"Mat Tom Yam","name:en":"Mat Tom Yam","name:ms":"Mat Tom Yam"},"geometry":{"type":"Point","coordinates":[102.3593274,3.9379577]},"id":"node/4603908097"},{"type":"Feature","properties":{"@id":"node/4605136292","addr:postcode":"12000","addr:street":"1 Jalan Bagan Luar","amenity":"dentist","healthcare":"dentist","name":"Seet Dental Surgery","name:en":"Seet Dental Surgery","opening_hours":"Mo-Sa 09:00-18:00"},"geometry":{"type":"Point","coordinates":[100.3706239,5.4085395]},"id":"node/4605136292"},{"type":"Feature","properties":{"@id":"node/4605136390","addr:postcode":"12000","addr:street":"1 Jalan Bagan Luar","amenity":"clinic","healthcare":"clinic","internet_access":"wlan","name":"Klinik Rawatan Dr Mahmud","name:en":"Klinik Rawatan Dr Mahmud","opening_hours":"Mo-Sa 08:00-18:00","phone":"+6043334652"},"geometry":{"type":"Point","coordinates":[100.3675456,5.3983118]},"id":"node/4605136390"},{"type":"Feature","properties":{"@id":"node/4605178893","amenity":"restaurant","name:en":"Long Yong Mow"},"geometry":{"type":"Point","coordinates":[102.2475837,2.1970827]},"id":"node/4605178893"},{"type":"Feature","properties":{"@id":"node/4605179790","amenity":"restaurant","name":"Little India","name:en":"Little India"},"geometry":{"type":"Point","coordinates":[102.2534183,2.197296]},"id":"node/4605179790"},{"type":"Feature","properties":{"@id":"node/4605179891","amenity":"restaurant","cuisine":"indian","name":"Reaz Corner","name:en":"Reaz Corner"},"geometry":{"type":"Point","coordinates":[103.7633321,1.456913]},"id":"node/4605179891"},{"type":"Feature","properties":{"@id":"node/4605179990","name":"Family bundle","name:en":"Family bundle","shop":"clothes"},"geometry":{"type":"Point","coordinates":[101.0872943,4.5952304]},"id":"node/4605179990"},{"type":"Feature","properties":{"@id":"node/4605231089","name":"Siong Long","name:en":"Siong Long","name:ms":"Siong Long","tourism":"artwork"},"geometry":{"type":"Point","coordinates":[101.6264835,2.9836054]},"id":"node/4605231089"},{"type":"Feature","properties":{"@id":"node/4605345795","name":"Tanah Liat","name:zh":"丹那烈","place":"village"},"geometry":{"type":"Point","coordinates":[100.4634333,5.3840463]},"id":"node/4605345795"},{"type":"Feature","properties":{"@id":"node/4605428880","addr:street":"Jalan Bangsar","amenity":"restaurant","name":"Churitto’s"},"geometry":{"type":"Point","coordinates":[101.6793083,3.1283812]},"id":"node/4605428880"},{"type":"Feature","properties":{"@id":"node/4605428884","name":"Zenith Face & Body Wellness","name:en":"Zenith Face & Body Wellness","shop":"beauty"},"geometry":{"type":"Point","coordinates":[101.6763701,3.1277734]},"id":"node/4605428884"},{"type":"Feature","properties":{"@id":"node/4605486493","branch":"Jerantut","brand":"eco-shop","brand:wikidata":"Q95721269","brand:wikipedia":"ms:Eco-shop","name":"eco-shop","operator":"Eco-Shop Marketing Sdn. Bhd.","shop":"variety_store","website":"https://welcome.eco-shop.com.my/"},"geometry":{"type":"Point","coordinates":[102.3624708,3.9373112]},"id":"node/4605486493"},{"type":"Feature","properties":{"@id":"node/4605559290","name":"1malaysia","name:en":"1malaysia","opening_hours":"Mo-Su 08:00-22:00","shop":"supermarket"},"geometry":{"type":"Point","coordinates":[102.3625523,3.9373423]},"id":"node/4605559290"},{"type":"Feature","properties":{"@id":"node/4605561390","amenity":"restaurant","cuisine":"seafood;malaysian;local","name":"Din Tomyam","name:en":"Din Tomyam","name:ms":"Din Tomyam"},"geometry":{"type":"Point","coordinates":[102.3593767,3.9380894]},"id":"node/4605561390"},{"type":"Feature","properties":{"@id":"node/4605791290","addr:housenumber":"NO 876","addr:postcode":"13000","addr:street":"Jalan Permatang Tengah","email":"info@tenconhardware.com","name":"Tencon Hardware Trading","opening_hours":"Mo-Fr 09:00-18:00; Sa 09:00-16:00","phone":"+6043323746","shop":"hardware","website":"http://www.tenconhardware.com"},"geometry":{"type":"Point","coordinates":[100.3880069,5.4499562]},"id":"node/4605791290"},{"type":"Feature","properties":{"@id":"node/4607289492","amenity":"restaurant","cuisine":"local;malaysian","name":"Nasi Kerabu Tumis","name:ms":"Nasi Kerabu Tumis"},"geometry":{"type":"Point","coordinates":[102.3652104,3.9420839]},"id":"node/4607289492"},{"type":"Feature","properties":{"@id":"node/4607325791","amenity":"restaurant","cuisine":"chinese;local","name":"Mei Tian Lai","opening_hours":"Mo-Su 07:00-18:00"},"geometry":{"type":"Point","coordinates":[102.3648977,3.9390491]},"id":"node/4607325791"},{"type":"Feature","properties":{"@id":"node/4607325792","amenity":"restaurant","cuisine":"regional","name":"Laksa Pot","name:en":"Laksa Pot","opening_hours":"Mo-Fr 08:30-19:30; Sa-Su 10:30-21:30"},"geometry":{"type":"Point","coordinates":[101.7028692,3.1518176]},"id":"node/4607325792"},{"type":"Feature","properties":{"@id":"node/4607325890","name":"Sunrise viewpoint","name:en":"Sunrise viewpoint","tourism":"viewpoint"},"geometry":{"type":"Point","coordinates":[102.3188781,3.9160046]},"id":"node/4607325890"},{"type":"Feature","properties":{"@id":"node/4607328589","name":"Daily Market","name:en":"Daily Market","shop":"supermarket"},"geometry":{"type":"Point","coordinates":[102.3594574,3.9401259]},"id":"node/4607328589"},{"type":"Feature","properties":{"@id":"node/4607328590","amenity":"restaurant","cuisine":"chinese;local","name":"Dim Sum","name:en":"Dim Sum"},"geometry":{"type":"Point","coordinates":[102.3652681,3.9438611]},"id":"node/4607328590"},{"type":"Feature","properties":{"@id":"node/4607527689","brand":"7-Eleven","brand:wikidata":"Q259340","brand:wikipedia":"en:7-Eleven","currency:MYR":"yes","name":"7-Eleven","name:zh":"7-11便利店","operator":"7-Eleven Malaysia Sdn Bhd","payment:cash":"yes","payment:coins":"yes","payment:touchngo":"yes","payment:visa":"yes","phone":"+603-2142 1136","shop":"convenience","short_name":"7-11","website":"https://www.7eleven.com.my/"},"geometry":{"type":"Point","coordinates":[103.7399012,1.4967041]},"id":"node/4607527689"},{"type":"Feature","properties":{"@id":"node/4607527690","brand":"Giant","brand:wikidata":"Q703557","brand:wikipedia":"en:Giant Bicycles","name":"Giant","name:en":"giant","name:zh":"Giant超级","shop":"bicycle"},"geometry":{"type":"Point","coordinates":[103.7255599,1.4872871]},"id":"node/4607527690"},{"type":"Feature","properties":{"@id":"node/4607548589","brand":"BMW","brand:wikidata":"Q26678","brand:wikipedia":"en:BMW","name":"BMW","name:en":"BMW","operator":"Auto Bavaria","shop":"car"},"geometry":{"type":"Point","coordinates":[103.7159242,1.4858794]},"id":"node/4607548589"},{"type":"Feature","properties":{"@id":"node/4607620354","amenity":"restaurant","cuisine":"malaysian;local","name":"Kak Wan Saerah","name:en":"Kak Wan Saerah","name:ms":"Kak Wan Saerah"},"geometry":{"type":"Point","coordinates":[102.3596705,3.9390389]},"id":"node/4607620354"},{"type":"Feature","properties":{"@id":"node/4607620355","amenity":"restaurant","cuisine":"malaysian;local","name":"Kak Noor","name:en":"Kak Noor","name:ms":"Kak Noor"},"geometry":{"type":"Point","coordinates":[102.3596014,3.9388007]},"id":"node/4607620355"},{"type":"Feature","properties":{"@id":"node/4607621916","amenity":"restaurant","cuisine":"malaysian;local","name":"Z & Z Mak Anjang","name:en":"Z & Z Mak Anjang","name:ms":"Z & Z Mak Anjang"},"geometry":{"type":"Point","coordinates":[102.3595775,3.9386949]},"id":"node/4607621916"},{"type":"Feature","properties":{"@id":"node/4607621917","amenity":"restaurant","name":"Gayan","name:en":"Gayan","name:ms":"Gayan"},"geometry":{"type":"Point","coordinates":[102.3592583,3.9388214]},"id":"node/4607621917"},{"type":"Feature","properties":{"@id":"node/4607623008","amenity":"restaurant","cuisine":"malaysian;local","name":"Wan Corner Tomyam Seafood","name:en":"Wan Corner Tomyam Seafood"},"geometry":{"type":"Point","coordinates":[102.3596408,3.9389567]},"id":"node/4607623008"},{"type":"Feature","properties":{"@id":"node/4607623207","name":"Saturday morning market","opening_hours":"Sa 07:00-14:30","shop":"supermarket"},"geometry":{"type":"Point","coordinates":[102.3606643,3.9409375]},"id":"node/4607623207"},{"type":"Feature","properties":{"@id":"node/4607623208","amenity":"restaurant","name":"Bakso & Masakan Pakas","name:ms":"Bakso & Masakan Pakas"},"geometry":{"type":"Point","coordinates":[102.3595306,3.9385451]},"id":"node/4607623208"},{"type":"Feature","properties":{"@id":"node/4607623209","amenity":"restaurant","name":"Warisan Pak Din","name:en":"Warisan Pak Din","name:ms":"Warisan Pak Din"},"geometry":{"type":"Point","coordinates":[102.3595041,3.9384403]},"id":"node/4607623209"},{"type":"Feature","properties":{"@id":"node/4607626591","amenity":"restaurant","name":"Kak Mah","name:en":"Kak Mah","name:ms":"Kak Mah"},"geometry":{"type":"Point","coordinates":[102.3595482,3.9386144]},"id":"node/4607626591"},{"type":"Feature","properties":{"@id":"node/4607722207","bus":"yes","highway":"bus_stop","name":"Maybank Silibin","public_transport":"platform"},"geometry":{"type":"Point","coordinates":[101.0623182,4.6078232]},"id":"node/4607722207"},{"type":"Feature","properties":{"@id":"node/4607722500","bus":"yes","highway":"bus_stop","name":"Unit Selenggaraan TNB Silibin","public_transport":"platform"},"geometry":{"type":"Point","coordinates":[101.0585965,4.6100799]},"id":"node/4607722500"},{"type":"Feature","properties":{"@id":"node/4607722501","bus":"yes","highway":"bus_stop","name":"Church of Lady Lourdes","public_transport":"platform"},"geometry":{"type":"Point","coordinates":[101.0692382,4.6021014]},"id":"node/4607722501"},{"type":"Feature","properties":{"@id":"node/4607765295","bus":"yes","highway":"bus_stop","name":"Kg Lumpur","name:ms":"Kg Lumpur","public_transport":"platform"},"geometry":{"type":"Point","coordinates":[101.0701091,4.5955622]},"id":"node/4607765295"},{"type":"Feature","properties":{"@id":"node/4608763726","name":"Fraser's Mart","name:en":"Fraser's Mart","shop":"convenience"},"geometry":{"type":"Point","coordinates":[101.7337595,3.7145525]},"id":"node/4608763726"},{"type":"Feature","properties":{"@id":"node/4608765643","amenity":"restaurant","cuisine":"chinese","name":"Restoran Hill View","name:en":"Hill View Restaurant","name:ms":"Restoran Hill View","name:zh":"山景中西餐室","name:zh-Hans":"山景中西餐室","name:zh-Hant":"山景中西餐室","phone":"+6093622231"},"geometry":{"type":"Point","coordinates":[101.7337227,3.7145778]},"id":"node/4608765643"},{"type":"Feature","properties":{"@id":"node/4608857693","amenity":"cafe"},"geometry":{"type":"Point","coordinates":[116.7099738,6.5347639]},"id":"node/4608857693"},{"type":"Feature","properties":{"@id":"node/4608878653","amenity":"kindergarten","name":"deBEST kids"},"geometry":{"type":"Point","coordinates":[101.679844,3.0996141]},"id":"node/4608878653"},{"type":"Feature","properties":{"@id":"node/4608885597","name":"Bukit Mertajam Viewing Point","name:en":"Bukit Mertajam Viewing Point","tourism":"viewpoint"},"geometry":{"type":"Point","coordinates":[100.4847472,5.3696824]},"id":"node/4608885597"},{"type":"Feature","properties":{"@id":"node/4608889589","shop":"convenience"},"geometry":{"type":"Point","coordinates":[116.7184845,6.7438072]},"id":"node/4608889589"},{"type":"Feature","properties":{"@id":"node/4608889590","tourism":"hotel"},"geometry":{"type":"Point","coordinates":[116.7462079,7.0293364]},"id":"node/4608889590"},{"type":"Feature","properties":{"@id":"node/4608889690","tourism":"museum"},"geometry":{"type":"Point","coordinates":[116.7114772,6.7497684]},"id":"node/4608889690"},{"type":"Feature","properties":{"@id":"node/4608966089","amenity":"bench"},"geometry":{"type":"Point","coordinates":[100.4837094,5.3668027]},"id":"node/4608966089"},{"type":"Feature","properties":{"@id":"node/4609020205","amenity":"bank","atm":"yes","brand":"Agrobank","brand:wikidata":"Q4694216","brand:wikipedia":"en:Agrobank","name":"Agrobank"},"geometry":{"type":"Point","coordinates":[101.6945757,3.146289]},"id":"node/4609020205"},{"type":"Feature","properties":{"@id":"node/4609020207","artwork_type":"sculpture","name":"I♥KL","name:en":"I♥KL","name:ms":"I♥KL","tourism":"artwork"},"geometry":{"type":"Point","coordinates":[101.6931443,3.1473654]},"id":"node/4609020207"},{"type":"Feature","properties":{"@id":"node/4609258775","amenity":"clock","man_made":"tower","name":"Fraser's Hill Clock Tower","name:en":"Fraser's Hill Clock Tower","name:ms":"Menara Jam Bukit Fraser","start_date":"1989","tourism":"attraction","tower:type":"clock"},"geometry":{"type":"Point","coordinates":[101.7363895,3.7118746]},"id":"node/4609258775"},{"type":"Feature","properties":{"@id":"node/4609259155","name":"Jeriau Waterfall","name:en":"Jeriau Waterfall","name:ms":"Air Terjun Jeriau","tourism":"attraction","waterway":"waterfall"},"geometry":{"type":"Point","coordinates":[101.7113333,3.728]},"id":"node/4609259155"},{"type":"Feature","properties":{"@id":"node/4609361495","addr:housenumber":"124","addr:street":"Jalan Tun H.S. Lee","name":"Smart Sweet Dreams","shop":"travel_agency"},"geometry":{"type":"Point","coordinates":[101.6969901,3.1460745]},"id":"node/4609361495"},{"type":"Feature","properties":{"@id":"node/4609509989","addr:housenumber":"86A","addr:street":"jalan Laksamana Cheng Ho","amenity":"restaurant","diet:vegetarian":"only","name":"VegeGood","name:en":"VegeGood","opening_hours":"Mo-Su 11:30-21:00","phone":"+60 6 281 5116"},"geometry":{"type":"Point","coordinates":[102.2575983,2.1947437]},"id":"node/4609509989"},{"type":"Feature","properties":{"@id":"node/4609621534","amenity":"fast_food","name":"Ramly Burger","opening_hours":"Mo-Su 20:00-04:00"},"geometry":{"type":"Point","coordinates":[101.6837808,3.1021354]},"id":"node/4609621534"},{"type":"Feature","properties":{"@id":"node/4609621697","brand":"7-Eleven","brand:wikidata":"Q259340","brand:wikipedia":"en:7-Eleven","currency:MYR":"yes","name":"7-Eleven","operator":"7-Eleven Malaysia Sdn Bhd","payment:cash":"yes","payment:coins":"yes","payment:touchngo":"yes","payment:visa":"yes","phone":"+603-2142 1136","shop":"convenience","short_name":"7-11","website":"https://www.7eleven.com.my/"},"geometry":{"type":"Point","coordinates":[101.683876,3.1021693]},"id":"node/4609621697"},{"type":"Feature","properties":{"@id":"node/4610027785","amenity":"shelter"},"geometry":{"type":"Point","coordinates":[101.5164216,3.0196229]},"id":"node/4610027785"},{"type":"Feature","properties":{"@id":"node/4610027786","amenity":"shelter"},"geometry":{"type":"Point","coordinates":[101.5163018,3.0214281]},"id":"node/4610027786"},{"type":"Feature","properties":{"@id":"node/4610027787","amenity":"shelter"},"geometry":{"type":"Point","coordinates":[101.5154405,3.0177276]},"id":"node/4610027787"},{"type":"Feature","properties":{"@id":"node/4610120703","amenity":"internet_cafe"},"geometry":{"type":"Point","coordinates":[103.6666565,1.481207]},"id":"node/4610120703"},{"type":"Feature","properties":{"@id":"node/4610131198","brand":"7-Eleven","brand:wikidata":"Q259340","brand:wikipedia":"en:7-Eleven","currency:MYR":"yes","name":"7-Eleven","name:zh":"7-11便利店","operator":"7-Eleven Malaysia Sdn Bhd","payment:cash":"yes","payment:coins":"yes","payment:touchngo":"yes","payment:visa":"yes","phone":"+603-2142 1136","shop":"convenience","short_name":"7-11","website":"https://www.7eleven.com.my/"},"geometry":{"type":"Point","coordinates":[103.6666848,1.4811062]},"id":"node/4610131198"},{"type":"Feature","properties":{"@id":"node/4611307610","amenity":"school","name":"SK Kuala Betis"},"geometry":{"type":"Point","coordinates":[101.7875567,4.9023236]},"id":"node/4611307610"},{"type":"Feature","properties":{"@id":"node/4611308212","name":"Kampung Barong","place":"village"},"geometry":{"type":"Point","coordinates":[101.5513173,4.9313691]},"id":"node/4611308212"},{"type":"Feature","properties":{"@id":"node/4611308213","amenity":"school","name":"SK Pos Balar"},"geometry":{"type":"Point","coordinates":[101.5313828,4.9385735]},"id":"node/4611308213"},{"type":"Feature","properties":{"@id":"node/4611308214","name":"Pos Balar","name:zh":"巴拉原住民村","place":"village","wikidata":"Q106771544"},"geometry":{"type":"Point","coordinates":[101.5310483,4.9386677]},"id":"node/4611308214"},{"type":"Feature","properties":{"@id":"node/4611308215","name":"Kampung Chachu","place":"village"},"geometry":{"type":"Point","coordinates":[101.5295663,4.994501]},"id":"node/4611308215"},{"type":"Feature","properties":{"@id":"node/4611308216","name":"Kampung Chemal","place":"village"},"geometry":{"type":"Point","coordinates":[101.5429331,4.9909864]},"id":"node/4611308216"},{"type":"Feature","properties":{"@id":"node/4611308217","name":"Kampung Tangkol","place":"village"},"geometry":{"type":"Point","coordinates":[101.5259279,4.9969462]},"id":"node/4611308217"},{"type":"Feature","properties":{"@id":"node/4611543789","addr:city":"Lumut","addr:place":"Teluk Batik","addr:postcode":"32200","name":"Denai Impian Chalet","name:en":"Denai Impian Chalet","tourism":"chalet"},"geometry":{"type":"Point","coordinates":[100.6098243,4.1870892]},"id":"node/4611543789"},{"type":"Feature","properties":{"@id":"node/4611845704","name":"Pontian Besar","name:zh":"大笨珍","place":"suburb"},"geometry":{"type":"Point","coordinates":[103.3844778,1.5014636]},"id":"node/4611845704"},{"type":"Feature","properties":{"@id":"node/4611958489","addr:city":"Kuala Lumpur","addr:street":"Jalan Melaka","amenity":"restaurant","cuisine":"indian","internet_access":"wlan","name":"Nasi Kandar KL Express","name:en":"Nasi Kandar KL Express","opening_hours":"24/7"},"geometry":{"type":"Point","coordinates":[101.6974903,3.1501594]},"id":"node/4611958489"},{"type":"Feature","properties":{"@id":"node/4611959092","addr:housenumber":"63","addr:postcode":"10150","addr:street":"Jalan Sungai Pinang","amenity":"doctors","healthcare":"doctor","name":"Allied Healthcare Centre of Excellence","name:en":"Allied Healthcare Centre of Excellence","opening_hours":"Mo-Fr 09:00-17:00","phone":"+6042817581","website":"http://ahcoe.my"},"geometry":{"type":"Point","coordinates":[100.3217417,5.4035309]},"id":"node/4611959092"},{"type":"Feature","properties":{"@id":"node/4612165221","amenity":"restaurant","cuisine":"malaysian"},"geometry":{"type":"Point","coordinates":[100.4656887,5.6557809]},"id":"node/4612165221"},{"type":"Feature","properties":{"@id":"node/4612165313","amenity":"fast_food","cuisine":"malaysian","name":"Nasi Kandar Al-Shiffa"},"geometry":{"type":"Point","coordinates":[100.4928747,5.6803225]},"id":"node/4612165313"},{"type":"Feature","properties":{"@id":"node/4612165326","brand":"7-Eleven","brand:wikidata":"Q259340","brand:wikipedia":"en:7-Eleven","currency:MYR":"yes","name":"7-Eleven","operator":"7-Eleven Malaysia Sdn Bhd","payment:cash":"yes","payment:coins":"yes","payment:touchngo":"yes","payment:visa":"yes","phone":"+603-2142 1136","shop":"convenience","short_name":"7-11","website":"https://www.7eleven.com.my/"},"geometry":{"type":"Point","coordinates":[100.4924767,5.6804299]},"id":"node/4612165326"},{"type":"Feature","properties":{"@id":"node/4612165345","shop":"tyres"},"geometry":{"type":"Point","coordinates":[100.5024553,5.6780271]},"id":"node/4612165345"},{"type":"Feature","properties":{"@id":"node/4612165366","addr:city":"Sungai Petani","addr:housenumber":"PT22391","addr:postcode":"08000","addr:street":"Jalan Lencongan Barat","alt_name":"Hahn's Cafe","amenity":"cafe","fixme":"Marina 4 has close for long and has been replaced by Kedai Kopi Hahn","internet_access":"wlan","internet_access:fee":"no","name":"Kedai Kopi Hahn","outdoor_seating":"yes","phone":"01155502283"},"geometry":{"type":"Point","coordinates":[100.5063393,5.676823]},"id":"node/4612165366"},{"type":"Feature","properties":{"@id":"node/4612165390","name":"Sad Delima Trading","name:en":"Sad Delima Trading","second_hand":"only","shop":"furniture"},"geometry":{"type":"Point","coordinates":[100.5087295,5.6821206]},"id":"node/4612165390"},{"type":"Feature","properties":{"@id":"node/4612165391","name":"Ayam Bismi","name:ms":"Ayam Bismi","shop":"butcher"},"geometry":{"type":"Point","coordinates":[100.5090192,5.6816455]},"id":"node/4612165391"},{"type":"Feature","properties":{"@id":"node/4612165393","name":"Jatihome","name:en":"Jatihome","name:ms":"Jatihome","shop":"furniture"},"geometry":{"type":"Point","coordinates":[100.5108446,5.6833985]},"id":"node/4612165393"},{"type":"Feature","properties":{"@id":"node/4612165396","brand":"Honda","shop":"motorcycle"},"geometry":{"type":"Point","coordinates":[100.5148595,5.6955169]},"id":"node/4612165396"},{"type":"Feature","properties":{"@id":"node/4613533190","amenity":"bureau_de_change","name":"Mina Enterprise Pengurup Wang Money Exchange (good rates)","name:en":"Mina Enterprise Pengurup Wang Money Exchange (good rates)"},"geometry":{"type":"Point","coordinates":[101.6969551,3.1522139]},"id":"node/4613533190"},{"type":"Feature","properties":{"@id":"node/4613619089","amenity":"bureau_de_change","name":"UAE Change","name:en":"UAE Change","opening_hours":"Mo-Sa 09:30-19:00"},"geometry":{"type":"Point","coordinates":[102.2519449,2.2001137]},"id":"node/4613619089"},{"type":"Feature","properties":{"@id":"node/4613724689","amenity":"toilets","operator":"Town","survey:date":"2023-08-06"},"geometry":{"type":"Point","coordinates":[116.0774959,5.9837555]},"id":"node/4613724689"},{"type":"Feature","properties":{"@id":"node/4613765924","name":"Bagan Selatan","name:ms":"Bagan Selatan","name:zh":"南港","name:zh-Hans":"南港","name:zh-Hant":"南港","place":"locality"},"geometry":{"type":"Point","coordinates":[100.3829462,5.0746359]},"id":"node/4613765924"},{"type":"Feature","properties":{"@id":"node/4613765935","name":"Bagan Utara","name:en":"North Bagan","name:ms":"Bagan Utara","name:zh":"北港","name:zh-Hans":"北港","name:zh-Hant":"北港","place":"locality"},"geometry":{"type":"Point","coordinates":[100.3894789,5.0790028]},"id":"node/4613765935"},{"type":"Feature","properties":{"@id":"node/4613940991","amenity":"restaurant"},"geometry":{"type":"Point","coordinates":[102.4036265,4.3810047]},"id":"node/4613940991"},{"type":"Feature","properties":{"@id":"node/4613981554","addr:city":"Kuala Lumpur","addr:street":"Jalan Klang Lama","alt_name":"Sime Darby Auto Hyundai","name":"Denza","opening_hours":"Mo-Su 08:30-17:30","postal_code":"58100","shop":"car","website":"https://denza.simemotors.my/"},"geometry":{"type":"Point","coordinates":[101.6760191,3.1003165]},"id":"node/4613981554"},{"type":"Feature","properties":{"@id":"node/4613981555","addr:city":"Kuala Lumpur","addr:place":"3rd Mile Square","addr:street":"Jalan Klang Lama","amenity":"bank","atm":"yes","brand":"HSBC","brand:wikidata":"Q190464","brand:wikipedia":"en:HSBC","check_date":"2025-11-02","name":"HSBC"},"geometry":{"type":"Point","coordinates":[101.6776126,3.1038609]},"id":"node/4613981555"},{"type":"Feature","properties":{"@id":"node/4613981556","amenity":"clinic","healthcare":"clinic","name":"Klinik Prima"},"geometry":{"type":"Point","coordinates":[101.6593612,3.1761422]},"id":"node/4613981556"},{"type":"Feature","properties":{"@id":"node/4613981557","amenity":"cafe","name":"Pretzn n' Beanz","name:en":"Pretzn n' Beanz"},"geometry":{"type":"Point","coordinates":[101.6597944,3.1758083]},"id":"node/4613981557"},{"type":"Feature","properties":{"@id":"node/4613981562","addr:country":"MY","branch":"Brickfields","brand":"99 Speedmart","brand:wikidata":"Q62075061","currency:MYR":"yes","internet_access":"wlan","name":"99 Speedmart","operator":"99 Speed Mart Sdn Berhad","payment:coins":"yes","payment:mastercard":"yes","payment:notes":"yes","payment:touchngo_ewallet":"yes","payment:visa":"yes","phone":"+603-3362 6863","shop":"supermarket","smoking":"no","source":"https://openstreetcam.org/details/2237450/50","website":"https://www.99speedmart.com.my/Store"},"geometry":{"type":"Point","coordinates":[101.6879214,3.1318236]},"id":"node/4613981562"},{"type":"Feature","properties":{"@id":"node/4613981574","name":"Empire Classic Furniture","name:en":"Empire Classic Furniture","shop":"furniture"},"geometry":{"type":"Point","coordinates":[101.6712327,3.1512021]},"id":"node/4613981574"},{"type":"Feature","properties":{"@id":"node/4614005990","amenity":"restaurant","cuisine":"malaysian","name":"Takeaway breakfast","opening_hours":"Mo-Su 07:00-12:00"},"geometry":{"type":"Point","coordinates":[102.4015751,4.3819774]},"id":"node/4614005990"},{"type":"Feature","properties":{"@id":"node/4614024189","internet_access":"wlan","name":"Rainbow Guesthouse","opening_hours":"Mo-Su 08:00-19:00","tourism":"hostel"},"geometry":{"type":"Point","coordinates":[102.3999151,4.382344]},"id":"node/4614024189"},{"type":"Feature","properties":{"@id":"node/4614024289","amenity":"shelter","building":"yes","leisure":"bird_hide","name":"Bumbun Tahan","name:en":"Tahan Hide","tourism":"viewpoint"},"geometry":{"type":"Point","coordinates":[102.4039614,4.3868693]},"id":"node/4614024289"},{"type":"Feature","properties":{"@id":"node/4614024290","amenity":"shelter"},"geometry":{"type":"Point","coordinates":[102.399401,4.3915216]},"id":"node/4614024290"},{"type":"Feature","properties":{"@id":"node/4614065979","name":"Peninsula Residences","name:en":"Peninsula Residences","tourism":"hotel"},"geometry":{"type":"Point","coordinates":[101.669973,3.1506077]},"id":"node/4614065979"},{"type":"Feature","properties":{"@id":"node/4614323138","addr:city":"Kuala Lumpur","addr:place":"Seputeh","name":"Little World Furniture","name:en":"Little World Furniture","shop":"furniture"},"geometry":{"type":"Point","coordinates":[101.6802918,3.1133984]},"id":"node/4614323138"},{"type":"Feature","properties":{"@id":"node/4614403778","addr:city":"Kuala Lumpur","addr:housenumber":"7","addr:postcode":"50490","addr:street":"Jalan Batai","amenity":"kindergarten","name":"Step By Step Nursery","phone":"+60323896699","preschool":"yes","website":"https://www.sbsnursery.com.my/"},"geometry":{"type":"Point","coordinates":[101.6611743,3.1507958]},"id":"node/4614403778"},{"type":"Feature","properties":{"@id":"node/4615702390","name":"Michael & Guys","name:en":"Michael & Guys","opening_hours":"Mo-Su 10:00-22:00","shop":"hairdresser"},"geometry":{"type":"Point","coordinates":[101.7112279,3.1425105]},"id":"node/4615702390"},{"type":"Feature","properties":{"@id":"node/4616047293","addr:city":"Kuala Lumpur","addr:housenumber":"53","addr:postcode":"50200","addr:street":"Changkat Bukit Bintang","amenity":"restaurant","name":"Mongolia BBQ","opening_hours":"Mo-Su 18:00-05:30","phone":"+6012-279 4496"},"geometry":{"type":"Point","coordinates":[101.7086555,3.1468784]},"id":"node/4616047293"},{"type":"Feature","properties":{"@id":"node/4616078389","amenity":"recycling","name":"Recycling Box","name:en":"Recycling Box","name:fr":"Borne de recyclage"},"geometry":{"type":"Point","coordinates":[102.242485,2.1924964]},"id":"node/4616078389"},{"type":"Feature","properties":{"@id":"node/4616278836","addr:city":"Kuala Lumpur","addr:housenumber":"136","addr:postcode":"50470","addr:street":"Jalan Tun Sambanthan","amenity":"restaurant","cuisine":"indian","name":"Anjappar","name:en":"Anjappar","opening_hours":"09:00-23:00","website":"https://www.anjappar.com/"},"geometry":{"type":"Point","coordinates":[101.6871369,3.1321736]},"id":"node/4616278836"},{"type":"Feature","properties":{"@id":"node/4617473741","amenity":"place_of_worship","name":"Surau Saidina Umar Al-Khattab","religion":"muslim"},"geometry":{"type":"Point","coordinates":[101.7844674,2.882735]},"id":"node/4617473741"},{"type":"Feature","properties":{"@id":"node/4618086488","amenity":"restaurant","level":"1","name":"Sushi Mentai","opening_hours":"Mo-Su 12:00-21:00","website":"https://sushi-mentai.com/"},"geometry":{"type":"Point","coordinates":[101.6865664,3.0983436]},"id":"node/4618086488"},{"type":"Feature","properties":{"@id":"node/4618086645","brand":"H&M","brand:wikidata":"Q188326","brand:wikipedia":"en:H&M","name":"H&M","shop":"clothes"},"geometry":{"type":"Point","coordinates":[101.7116432,3.1466493]},"id":"node/4618086645"},{"type":"Feature","properties":{"@id":"node/4618086648","brand":"Mercedes-Benz","brand:wikidata":"Q36008","brand:wikipedia":"en:Mercedes-Benz","name":"Hap Seng Star","name:en":"Hap Seng Star","opening_hours":"Mo-Fr 09:00-19:00; Sa,Su 09:00-18:00","phone":"+603 2116 9228","shop":"car","website":"https://www.hapseng.mercedes-benz.com.my/"},"geometry":{"type":"Point","coordinates":[101.7076974,3.153394]},"id":"node/4618086648"},{"type":"Feature","properties":{"@id":"node/4618149175","amenity":"parking_entrance"},"geometry":{"type":"Point","coordinates":[101.7083311,3.1434215]},"id":"node/4618149175"},{"type":"Feature","properties":{"@id":"node/4618149182","name":"macstudio BB","name:it":"Macstudio","shop":"electronics"},"geometry":{"type":"Point","coordinates":[101.7095555,3.1444099]},"id":"node/4618149182"},{"type":"Feature","properties":{"@id":"node/4618203395","addr:country":"MY","brand":"KK Super Mart","brand:wikidata":"Q95721993","name":"KK Super Mart","operator":"KK Supermart & Superstore Sdn Bhd","shop":"convenience","short_name":"KK","website":"https://kkgroup.my/kk-super-mart"},"geometry":{"type":"Point","coordinates":[101.7084893,3.1444208]},"id":"node/4618203395"},{"type":"Feature","properties":{"@id":"node/4618206291","name":"Impian Hotel","name:en":"Impian Hotel","tourism":"hotel"},"geometry":{"type":"Point","coordinates":[102.5013218,5.7374071]},"id":"node/4618206291"},{"type":"Feature","properties":{"@id":"node/4618219830","amenity":"parking_entrance"},"geometry":{"type":"Point","coordinates":[101.7097903,3.143637]},"id":"node/4618219830"},{"type":"Feature","properties":{"@id":"node/4618290062","addr:housenumber":"44A-44B","addr:postcode":"55100","addr:street":"Jalan Pudu","name":"Hotel 99","name:en":"Hotel 99","name:ms":"Hotel 99","phone":"60320786666","tourism":"hotel"},"geometry":{"type":"Point","coordinates":[101.7017168,3.1459394]},"id":"node/4618290062"},{"type":"Feature","properties":{"@id":"node/4618290063","addr:housenumber":"42","addr:street":"Jalan Pudu","name":"Hotel Transit","name:en":"Transit Hotel","name:ms":"Transit Hotel","tourism":"hotel"},"geometry":{"type":"Point","coordinates":[101.7014301,3.1460315]},"id":"node/4618290063"},{"type":"Feature","properties":{"@id":"node/4618352609","name":"U-Lek Motor","shop":"car_repair"},"geometry":{"type":"Point","coordinates":[100.4731755,5.6075767]},"id":"node/4618352609"},{"type":"Feature","properties":{"@id":"node/4618388489","amenity":"nightclub","name":"食街。","name:zh":"食街。","name:zh-Hans":"食街。","name:zh-Hant":"食街。"},"geometry":{"type":"Point","coordinates":[101.7140005,3.1346621]},"id":"node/4618388489"},{"type":"Feature","properties":{"@id":"node/4618404914","name":"Taman Seri Pekula 1","place":"neighbourhood"},"geometry":{"type":"Point","coordinates":[100.4452873,5.5891213]},"id":"node/4618404914"},{"type":"Feature","properties":{"@id":"node/4618406910","bench":"yes","bus":"yes","highway":"bus_stop","name":"HAB Pasar Seni (Platform E1 - E3)","name:en":"HAB Pasar Seni (Platform E1 - E3)","operator":"Rapid KL","public_transport":"platform","ref":"KL1933","route_ref":"600","shelter":"yes"},"geometry":{"type":"Point","coordinates":[101.6954117,3.1413537]},"id":"node/4618406910"},{"type":"Feature","properties":{"@id":"node/4618406911","bench":"yes","bus":"yes","highway":"bus_stop","local_ref":"Platform B","name":"Pasar Seni (Platform B3 - B4)","name:en":"Pasar Seni (Platform B3 - B4)","operator":"Rapid KL","public_transport":"platform","ref":"KL2213","route_ref":"751","shelter":"yes"},"geometry":{"type":"Point","coordinates":[101.6952663,3.1425107]},"id":"node/4618406911"},{"type":"Feature","properties":{"@id":"node/4618427253","name":"Pokok Simpor","place":"hamlet","source":"https://www.mapillary.com/app/?pKey=V7Vw1NeXoy3UIQ7G1I0C8j&focus=photo"},"geometry":{"type":"Point","coordinates":[100.4263315,5.4813738]},"id":"node/4618427253"},{"type":"Feature","properties":{"@id":"node/4618539270","addr:city":"Kuala Lumpur","addr:street":"Jalan Sultan","name":"Hotel City Inn","tourism":"hotel"},"geometry":{"type":"Point","coordinates":[101.6972302,3.1424139]},"id":"node/4618539270"},{"type":"Feature","properties":{"@id":"node/4618620987","addr:city":"Kuala Lumpur","addr:street":"Jalan Thambipillay","addr:suburb":"Brickfields","brand":"Hotel New Winner","name":"Hotel New Winner","name:en":"Hotel New Winner","tourism":"hotel"},"geometry":{"type":"Point","coordinates":[101.6886894,3.1328595]},"id":"node/4618620987"},{"type":"Feature","properties":{"@id":"node/4618620988","addr:city":"Kuala Lumpur","addr:housenumber":"30","addr:postcode":"50470","addr:street":"Jalan Thambipillay","brand":"Hotel Sentral","email":"hsminfo@hsm.my","facebook":"http://www.facebook.com/hotelsentralmanagement","internet_access":"wlan","internet_access:fee":"no","name":"Hotel Sentral","name:ms":"Hotel Sentral","phone":"+603 2272 6000","stars":"3","tourism":"hotel","website":"https://hotelsentral.com.my/"},"geometry":{"type":"Point","coordinates":[101.6882079,3.1320949]},"id":"node/4618620988"},{"type":"Feature","properties":{"@id":"node/4618661382","name":"Mutiara Performance Vehicle Proservice","shop":"car_repair"},"geometry":{"type":"Point","coordinates":[100.4316243,5.3682355]},"id":"node/4618661382"},{"type":"Feature","properties":{"@id":"node/4618661385","name":"Onzu Hardware Sdn Bhd","shop":"hardware"},"geometry":{"type":"Point","coordinates":[100.4316767,5.3680391]},"id":"node/4618661385"},{"type":"Feature","properties":{"@id":"node/4618661386","amenity":"restaurant","cuisine":"malaysian;thai","name":"Bangkok Station"},"geometry":{"type":"Point","coordinates":[100.431694,5.3679675]},"id":"node/4618661386"},{"type":"Feature","properties":{"@id":"node/4618661387","brand":"Dunlop","name":"See Lee Chan Battery Trading","shop":"tyres"},"geometry":{"type":"Point","coordinates":[100.431611,5.3676011]},"id":"node/4618661387"},{"type":"Feature","properties":{"@id":"node/4618661388","brand":"Dunlop","name":"See Lee Chan Battery Trading","shop":"tyres"},"geometry":{"type":"Point","coordinates":[100.4316927,5.3673186]},"id":"node/4618661388"},{"type":"Feature","properties":{"@id":"node/4618661398","name":"Pro Hair Styling & Beauty","shop":"hairdresser","unisex":"yes","wheelchair":"limited"},"geometry":{"type":"Point","coordinates":[100.4306228,5.3692312]},"id":"node/4618661398"},{"type":"Feature","properties":{"@id":"node/4618661448","amenity":"toilets"},"geometry":{"type":"Point","coordinates":[100.4306195,5.3694668]},"id":"node/4618661448"},{"type":"Feature","properties":{"@id":"node/4618661462","addr:street":"Jalan Perda Utama","bench":"yes","bus":"yes","highway":"bus_stop","name":"Astaka Perda","network":"Rapid Penang","network:wikidata":"Q4259055","operator":"Rapid Bus","operator:wikidata":"Q7294127","public_transport":"platform","ref":"12001093","shelter":"yes"},"geometry":{"type":"Point","coordinates":[100.4276403,5.3682011]},"id":"node/4618661462"},{"type":"Feature","properties":{"@id":"node/4618661463","name":"Kedai Runcit Aiman","shop":"convenience","source":"https://www.mapillary.com/app/?pKey=zA8ZvIgZmjsw5BZTGnVAeW&focus=photo"},"geometry":{"type":"Point","coordinates":[100.4271067,5.3683382]},"id":"node/4618661463"},{"type":"Feature","properties":{"@id":"node/4618661468","amenity":"clinic","healthcare":"clinic","name":"Poliklinik Ikhsan","source":"https://www.mapillary.com/app/?pKey=QDBuy09anPzJCtgbS4HmGE&focus=photo"},"geometry":{"type":"Point","coordinates":[100.4271073,5.3671527]},"id":"node/4618661468"},{"type":"Feature","properties":{"@id":"node/4618661476","name":"MZ Mobile","shop":"mobile_phone","source":"https://www.mapillary.com/app/?pKey=v2iPGNegqOWGTSpqtsccre&focus=photo"},"geometry":{"type":"Point","coordinates":[100.4264156,5.3672762]},"id":"node/4618661476"},{"type":"Feature","properties":{"@id":"node/4618661477","amenity":"pharmacy","healthcare":"pharmacy","name":"Farmasi Harmoni","source":"https://www.mapillary.com/app/?pKey=2xU9txMV07wNc73RzgjLxC&focus=photo"},"geometry":{"type":"Point","coordinates":[100.4265423,5.3673363]},"id":"node/4618661477"},{"type":"Feature","properties":{"@id":"node/4618661716","brand":"7-Eleven","brand:wikidata":"Q259340","brand:wikipedia":"en:7-Eleven","currency:MYR":"yes","name":"7-Eleven","opening_hours":"24/7","operator":"7-Eleven Malaysia Sdn Bhd","payment:cash":"yes","payment:coins":"yes","payment:touchngo":"yes","payment:visa":"yes","phone":"+603-2142 1136","shop":"convenience","short_name":"7-11","website":"https://www.7eleven.com.my/"},"geometry":{"type":"Point","coordinates":[100.42078,5.375272]},"id":"node/4618661716"},{"type":"Feature","properties":{"@id":"node/4618661725","shop":"convenience"},"geometry":{"type":"Point","coordinates":[100.4207832,5.3777609]},"id":"node/4618661725"},{"type":"Feature","properties":{"@id":"node/4618661727","amenity":"college","name":"Kolej Komuniti Seberang Jaya"},"geometry":{"type":"Point","coordinates":[100.4196858,5.3788762]},"id":"node/4618661727"},{"type":"Feature","properties":{"@id":"node/4618661728","amenity":"driving_school","name":"SM Suria Agency"},"geometry":{"type":"Point","coordinates":[100.4198819,5.3797623]},"id":"node/4618661728"},{"type":"Feature","properties":{"@id":"node/4618661738","name":"Seng Lee Hardware","shop":"hardware"},"geometry":{"type":"Point","coordinates":[100.4196163,5.3805123]},"id":"node/4618661738"},{"type":"Feature","properties":{"@id":"node/4618661746","name":"Kedai Gunting Rambut Sakti","shop":"hairdresser"},"geometry":{"type":"Point","coordinates":[100.4198812,5.380949]},"id":"node/4618661746"},{"type":"Feature","properties":{"@id":"node/4618661747","opening_hours":"24/7","shop":"convenience"},"geometry":{"type":"Point","coordinates":[100.4194808,5.3812005]},"id":"node/4618661747"},{"type":"Feature","properties":{"@id":"node/4618661750","name":"Kiang Leng Workshop","shop":"car_repair"},"geometry":{"type":"Point","coordinates":[100.4182372,5.3863906]},"id":"node/4618661750"},{"type":"Feature","properties":{"@id":"node/4618661765","bench":"yes","bus":"yes","highway":"bus_stop","name":"Masjid Papan","network":"Rapid Penang","network:wikidata":"Q4259055","operator":"Rapid Bus","operator:wikidata":"Q7294127","public_transport":"platform","ref":"12001181","route_ref":"702;709","shelter":"yes"},"geometry":{"type":"Point","coordinates":[100.4182501,5.3886561]},"id":"node/4618661765"},{"type":"Feature","properties":{"@id":"node/4618661766","amenity":"fast_food","cuisine":"burger"},"geometry":{"type":"Point","coordinates":[100.4181125,5.3901569]},"id":"node/4618661766"},{"type":"Feature","properties":{"@id":"node/4618661768","addr:street":"Jalan Permatang Pauh","bench":"yes","bus":"yes","highway":"bus_stop","name":"Kampung Pertama Baru","network":"Rapid Penang","network:wikidata":"Q4259055","operator":"Rapid Bus","operator:wikidata":"Q7294127","public_transport":"platform","ref":"12001182","route_ref":"702;709","shelter":"yes","tactile_paving":"yes"},"geometry":{"type":"Point","coordinates":[100.4180748,5.3901678]},"id":"node/4618661768"},{"type":"Feature","properties":{"@id":"node/4618661769","name":"Permatang Pauh Tyre and Battery","shop":"tyres"},"geometry":{"type":"Point","coordinates":[100.4181608,5.3904401]},"id":"node/4618661769"},{"type":"Feature","properties":{"@id":"node/4618661770","name":"Binari Enterprise","opening_hours":"24/7","shop":"convenience"},"geometry":{"type":"Point","coordinates":[100.4177039,5.3912051]},"id":"node/4618661770"},{"type":"Feature","properties":{"@id":"node/4618661771","amenity":"restaurant","cuisine":"malaysian","name":"Restoran ZJ Bahagia"},"geometry":{"type":"Point","coordinates":[100.4178169,5.3905324]},"id":"node/4618661771"},{"type":"Feature","properties":{"@id":"node/4618661772","shop":"mobile_phone"},"geometry":{"type":"Point","coordinates":[100.4177691,5.3907946]},"id":"node/4618661772"},{"type":"Feature","properties":{"@id":"node/4618661773","name":"Kedai Gunting Rambut Sham","shop":"hairdresser"},"geometry":{"type":"Point","coordinates":[100.417762,5.3908323]},"id":"node/4618661773"},{"type":"Feature","properties":{"@id":"node/4618661774","amenity":"fast_food","cuisine":"malaysian","name":"Warung Adik Abang"},"geometry":{"type":"Point","coordinates":[100.4176564,5.3915379]},"id":"node/4618661774"},{"type":"Feature","properties":{"@id":"node/4618661775","amenity":"car_wash","opening_hours":"Mo-Su 09:00-21:00"},"geometry":{"type":"Point","coordinates":[100.4181239,5.3932964]},"id":"node/4618661775"},{"type":"Feature","properties":{"@id":"node/4618661776","amenity":"fast_food","cuisine":"malaysian","name":"Nasi Kandar To' Kandu"},"geometry":{"type":"Point","coordinates":[100.4177192,5.393325]},"id":"node/4618661776"},{"type":"Feature","properties":{"@id":"node/4618663715","addr:unit":"G8;G9","amenity":"restaurant","cuisine":"japanese","name":"Koyaku","opening_hours":"12:00–15:00,18:00–22:00","outdoor_seating":"terrace","phone":"+60379844688"},"geometry":{"type":"Point","coordinates":[101.6850499,3.1021219]},"id":"node/4618663715"},{"type":"Feature","properties":{"@id":"node/4618663716","addr:unit":"G12","amenity":"restaurant","cuisine":"korean","level":"0","name":"Kimchitiam","outdoor_seating":"terrace"},"geometry":{"type":"Point","coordinates":[101.6848851,3.1018189]},"id":"node/4618663716"},{"type":"Feature","properties":{"@id":"node/4618663747","bench":"yes","bin":"yes","bus":"yes","highway":"bus_stop","name":"Wisma TM Taman Desa","network":"MRT Feeder Bus","operator":"Rapid Bus","public_transport":"platform","ref":"KL1198","route_ref":"T585","shelter":"yes"},"geometry":{"type":"Point","coordinates":[101.682371,3.1034491]},"id":"node/4618663747"},{"type":"Feature","properties":{"@id":"node/4618663748","bench":"yes","bin":"yes","bus":"yes","highway":"bus_stop","name":"Wisma Telekom Taman Desa","network":"Rapid KL Bus;Rapid KL On-Demand","old_name":"Wisma TM Taman Desa","on_demand":"yes","operator":"Rapid Bus","public_transport":"platform","ref":"KL1188","route_ref":"650;T650B","shelter":"yes"},"geometry":{"type":"Point","coordinates":[101.6822608,3.1035399]},"id":"node/4618663748"},{"type":"Feature","properties":{"@id":"node/4619790150","addr:housenumber":"49","name":"HSK Mart","shop":"convenience"},"geometry":{"type":"Point","coordinates":[101.6877186,3.1319865]},"id":"node/4619790150"},{"type":"Feature","properties":{"@id":"node/4619829502","addr:city":"Kuala Lumpur","addr:housenumber":"5","addr:postcode":"50470","addr:street":"Jalan Stesen Sentral 5","brand":"Aloft","brand:wikidata":"Q4734166","brand:wikipedia":"en:Aloft Hotels","internet_access":"wlan","internet_access:fee":"no","name":"Aloft Kuala Lumpur Sentral","name:en":"Aloft Kuala Lumpur Sentral","phone":"+603 2723 1188","rooms":"482","stars":"4","tourism":"hotel","website":"http://www.aloftkualalumpursentral.com/"},"geometry":{"type":"Point","coordinates":[101.6860698,3.1329651]},"id":"node/4619829502"},{"type":"Feature","properties":{"@id":"node/4619851007","bus":"yes","highway":"bus_stop","name":"Plusliner bus stop","public_transport":"platform"},"geometry":{"type":"Point","coordinates":[101.6854938,3.1338094]},"id":"node/4619851007"},{"type":"Feature","properties":{"@id":"node/4619851015","addr:city":"Kuala Lumpur","addr:housenumber":"6","addr:postcode":"50470","addr:street":"Jalan Stesen Sentral 2","internet_access":"wlan","internet_access:fee":"no","name":"The St. Regis Kuala Lumpur","name:en":"The St. Regis Kuala Lumpur","name:zh":"吉隆坡瑞吉酒店","name:zh-Hans":"吉隆坡瑞吉酒店","name:zh-Hant":"吉隆坡瑞吉酒店","phone":"+60 32727 1111","rooms":"208","stars":"5","tourism":"hotel","website":"http://www.stregiskualalumpur.com/"},"geometry":{"type":"Point","coordinates":[101.6886196,3.1368709]},"id":"node/4619851015"},{"type":"Feature","properties":{"@id":"node/4619870926","air_conditioning":"yes","name":"Star Sentral","tourism":"hotel"},"geometry":{"type":"Point","coordinates":[101.6879363,3.1329395]},"id":"node/4619870926"},{"type":"Feature","properties":{"@id":"node/4619901232","internet_access":"wlan","internet_access:fee":"no","name":"Submarine @ Central Market","name:en":"Submarine @ Central Market","rooms":"15","tourism":"guest_house","website":"http://www.submarinehotels.com/"},"geometry":{"type":"Point","coordinates":[101.6961285,3.1456802]},"id":"node/4619901232"},{"type":"Feature","properties":{"@id":"node/4620455489","amenity":"restaurant","name":"Husna Jie Satay","name:en":"Husna Jie Satay"},"geometry":{"type":"Point","coordinates":[102.501401,5.7368625]},"id":"node/4620455489"},{"type":"Feature","properties":{"@id":"node/4620475489","amenity":"clinic","healthcare":"clinic","name":"Klinik Kesihatan Kuala Tahan","name:en":"Klinik Kesihatan Kuala Tahan"},"geometry":{"type":"Point","coordinates":[102.4016341,4.3823294]},"id":"node/4620475489"},{"type":"Feature","properties":{"@id":"node/4620835168","bench":"yes","bus":"yes","highway":"bus_stop","name":"Kampung Batu Dua","network":"Rapid Penang","network:wikidata":"Q4259055","operator":"Rapid Bus","operator:wikidata":"Q7294127","public_transport":"platform","ref":"12001202","route_ref":"702;709","shelter":"yes"},"geometry":{"type":"Point","coordinates":[100.4180827,5.3888741]},"id":"node/4620835168"},{"type":"Feature","properties":{"@id":"node/4620835171","name":"Faisol Motor","repair":"yes","shop":"motorcycle"},"geometry":{"type":"Point","coordinates":[100.4197832,5.3803716]},"id":"node/4620835171"},{"type":"Feature","properties":{"@id":"node/4620835182","name":"Tedi Enterprise","shop":"laundry"},"geometry":{"type":"Point","coordinates":[100.4206141,5.3783736]},"id":"node/4620835182"},{"type":"Feature","properties":{"@id":"node/4620838731","name":"X Pay","shop":"mobile_phone","source":"https://www.mapillary.com/app/?pKey=MktBrBVH7DVqIRHLOTq3JK&focus=photo"},"geometry":{"type":"Point","coordinates":[100.4253915,5.3670578]},"id":"node/4620838731"},{"type":"Feature","properties":{"@id":"node/4620838732","name":"Kedaii Buah-Buahan Wonderlee Trading","shop":"greengrocer","source":"https://www.mapillary.com/app/?pKey=owYIBAwmK0cHg5vBLV5l1b&focus=photo"},"geometry":{"type":"Point","coordinates":[100.4254409,5.3670489]},"id":"node/4620838732"},{"type":"Feature","properties":{"@id":"node/4620838733","amenity":"pharmacy","healthcare":"pharmacy","name":"KU Pharmacy Sdn. Bhd.","name:zh":"康优西药行有限公司","source":"https://www.mapillary.com/app/?pKey=kWQE3BHgJQsv0KBmzqePGu&focus=photo"},"geometry":{"type":"Point","coordinates":[100.4255409,5.3670347]},"id":"node/4620838733"},{"type":"Feature","properties":{"@id":"node/4620838734","amenity":"restaurant","cuisine":"malaysian","name":"Warung Tomyam","source":"https://www.mapillary.com/app/?pKey=FRVGPvgxErswtFrYM8qrq4&focus=photo"},"geometry":{"type":"Point","coordinates":[100.4270544,5.3674979]},"id":"node/4620838734"},{"type":"Feature","properties":{"@id":"node/4620838735","amenity":"restaurant","cuisine":"malaysian","name":"Restoran Nasi Kandar Nasmir","takeaway":"yes"},"geometry":{"type":"Point","coordinates":[100.4278367,5.3676193]},"id":"node/4620838735"},{"type":"Feature","properties":{"@id":"node/4620838741","amenity":"atm","brand":"Maybank","brand:wikidata":"Q1364018","brand:wikipedia":"en:Maybank","name":"Maybank","operator":"Maybank","operator:wikidata":"Q1364018","operator:wikipedia":"en:Maybank"},"geometry":{"type":"Point","coordinates":[100.4285129,5.3677982]},"id":"node/4620838741"},{"type":"Feature","properties":{"@id":"node/4620838745","shop":"paint"},"geometry":{"type":"Point","coordinates":[100.429328,5.3678649]},"id":"node/4620838745"},{"type":"Feature","properties":{"@id":"node/4620838746","brand":"Suzuki;Yamaha","motorcycle:repair":"yes","motorcycle:sales":"yes","name":"Parda Motor","name:zh":"八达摩哆","phone":"+6045372254","shop":"motorcycle","source":"https://www.mapillary.com/app/?pKey=sd1L5E6W6WEvKGf273L2vA&focus=photo"},"geometry":{"type":"Point","coordinates":[100.4296311,5.3679611]},"id":"node/4620838746"},{"type":"Feature","properties":{"@id":"node/4620838747","name":"Kedai Gunting Rambut Perda","name:en":"Perda Hair Saloon","shop":"hairdresser"},"geometry":{"type":"Point","coordinates":[100.430653,5.3680893]},"id":"node/4620838747"},{"type":"Feature","properties":{"@id":"node/4620838748","name":"Laundrybar Bandar Perda","opening_hours":"24/7","shop":"laundry","wheelchair":"limited"},"geometry":{"type":"Point","coordinates":[100.4306343,5.3681694]},"id":"node/4620838748"},{"type":"Feature","properties":{"@id":"node/4620838750","name":"Pasaraya Era Ikhwan","shop":"convenience"},"geometry":{"type":"Point","coordinates":[100.4307201,5.3678222]},"id":"node/4620838750"},{"type":"Feature","properties":{"@id":"node/4620878336","name":"Hock Guan Huat","shop":"convenience"},"geometry":{"type":"Point","coordinates":[100.4131226,5.410551]},"id":"node/4620878336"},{"type":"Feature","properties":{"@id":"node/4620878337","name":"Ong 168 Teleshop","shop":"mobile_phone"},"geometry":{"type":"Point","coordinates":[100.4137454,5.4095984]},"id":"node/4620878337"},{"type":"Feature","properties":{"@id":"node/4620878338","name":"D-Lima","shop":"convenience"},"geometry":{"type":"Point","coordinates":[100.4136797,5.4098267]},"id":"node/4620878338"},{"type":"Feature","properties":{"@id":"node/4620878339","shop":"mobile_phone"},"geometry":{"type":"Point","coordinates":[100.4135201,5.4095887]},"id":"node/4620878339"},{"type":"Feature","properties":{"@id":"node/4620878340","amenity":"pharmacy","healthcare":"pharmacy","name":"Farmasi Pauh Sdn Bhd"},"geometry":{"type":"Point","coordinates":[100.4135114,5.4096227]},"id":"node/4620878340"},{"type":"Feature","properties":{"@id":"node/4620878341","service:bicycle:repair":"yes","shop":"bicycle"},"geometry":{"type":"Point","coordinates":[100.4135338,5.4095433]},"id":"node/4620878341"},{"type":"Feature","properties":{"@id":"node/4620878342","name":"e joy","shop":"beauty"},"geometry":{"type":"Point","coordinates":[100.413454,5.4094432]},"id":"node/4620878342"},{"type":"Feature","properties":{"@id":"node/4620878348","amenity":"fast_food"},"geometry":{"type":"Point","coordinates":[100.4138371,5.4083486]},"id":"node/4620878348"},{"type":"Feature","properties":{"@id":"node/4620878353","amenity":"restaurant","name":"De' Bamboo Corner"},"geometry":{"type":"Point","coordinates":[100.4146427,5.4072475]},"id":"node/4620878353"},{"type":"Feature","properties":{"@id":"node/4620878368","addr:housenumber":"1682","addr:street":"Jalan Permatang Pauh","name":"Sin Giap Lee Hardware Sdn Bhd","name:zh":"新业历有限公司","office":"company","shop":"hardware"},"geometry":{"type":"Point","coordinates":[100.4151081,5.405902]},"id":"node/4620878368"},{"type":"Feature","properties":{"@id":"node/4620878378","bus":"yes","highway":"bus_stop","name":"Jalan Permatang Pauh","public_transport":"platform"},"geometry":{"type":"Point","coordinates":[100.4162788,5.4045301]},"id":"node/4620878378"},{"type":"Feature","properties":{"@id":"node/4620878596","name":"Permatang Pauh Gemilang","name:zh":"峇东埔伽私","shop":"furniture"},"geometry":{"type":"Point","coordinates":[100.4169488,5.4001233]},"id":"node/4620878596"},{"type":"Feature","properties":{"@id":"node/4620878597","bus":"yes","highway":"bus_stop","name":"Jalan Permatang Pauh","public_transport":"platform"},"geometry":{"type":"Point","coordinates":[100.4171284,5.3992144]},"id":"node/4620878597"},{"type":"Feature","properties":{"@id":"node/4620878598","bench":"yes","bus":"yes","highway":"bus_stop","public_transport":"platform","shelter":"yes","tactile_paving":"yes"},"geometry":{"type":"Point","coordinates":[100.4172757,5.3993607]},"id":"node/4620878598"},{"type":"Feature","properties":{"@id":"node/4621523989","addr:street":"Jalan TK 1/13","name":"besut bestari","name:en":"besut bestari","shop":"beverages"},"geometry":{"type":"Point","coordinates":[101.6466169,3.0635588]},"id":"node/4621523989"},{"type":"Feature","properties":{"@id":"node/4621562583","addr:city":"Kuala Lumpur","addr:postcode":"50470","addr:street":"Jalan Tun Sambanthan","addr:suburb":"Brickfields","alt_name":"BSN Brickfields","amenity":"bank","atm":"yes","brand":"Bank Simpanan Nasional","brand:wikidata":"Q4855972","brand:wikipedia":"en:Bank Simpanan Nasional","name":"Bank Simpanan Nasional","short_name":"BSN"},"geometry":{"type":"Point","coordinates":[101.6866251,3.1316703]},"id":"node/4621562583"},{"type":"Feature","properties":{"@id":"node/4621576344","addr:housenumber":"150","addr:postcode":"50470","addr:street":"Jalan Tun Sambanthan","amenity":"bank","atm":"yes","brand":"Hong Leong Bank","brand:en":"Hong Leong Bank","brand:wikidata":"Q4383943","brand:wikipedia":"en:Hong Leong Bank","brand:zh":"丰隆银行","name":"Hong Leong Bank","name:en":"Hong Leong Bank","name:zh":"丰隆银行"},"geometry":{"type":"Point","coordinates":[101.6868121,3.1318459]},"id":"node/4621576344"},{"type":"Feature","properties":{"@id":"node/4621576364","addr:city":"Kuala Lumpur","addr:street":"Jalan Thambipillay","addr:suburb":"Brickfields","internet_access":"wlan","internet_access:fee":"no","name":"Signature Hotel","note":"Bad online reviews as of 01/2017","phone":"+6032274 9595","stars":"2","tourism":"hotel","website":"https://www.mysignaturehotel.com.my/"},"geometry":{"type":"Point","coordinates":[101.6872183,3.1314996]},"id":"node/4621576364"},{"type":"Feature","properties":{"@id":"node/4621581790","amenity":"pharmacy","healthcare":"pharmacy","name":"Farmasi The Family Pharmacy"},"geometry":{"type":"Point","coordinates":[103.7117068,1.5455018]},"id":"node/4621581790"},{"type":"Feature","properties":{"@id":"node/4621581791","amenity":"restaurant","name":"pty","name:en":"pty"},"geometry":{"type":"Point","coordinates":[103.7176077,1.546591]},"id":"node/4621581791"},{"type":"Feature","properties":{"@id":"node/4621583399","amenity":"vending_machine","vending":"parking_tickets"},"geometry":{"type":"Point","coordinates":[101.6847293,3.1327992]},"id":"node/4621583399"},{"type":"Feature","properties":{"@id":"node/4621586789","amenity":"bank","name":"Hong Leong","name:en":"Hong Leong"},"geometry":{"type":"Point","coordinates":[103.7115179,1.5453617]},"id":"node/4621586789"},{"type":"Feature","properties":{"@id":"node/4621586889","name":"aquanan","name:en":"aquanan","shop":"laundry"},"geometry":{"type":"Point","coordinates":[103.7155704,1.5464404]},"id":"node/4621586889"},{"type":"Feature","properties":{"@id":"node/4621599020","addr:city":"Johor Bahru","addr:postcode":"81200","addr:street":"Jalan Setia Tropika 1/21","amenity":"cafe","brand":"Starbucks","brand:wikidata":"Q37158","brand:wikipedia":"en:Starbucks","cuisine":"coffee_shop","name":"Starbucks","name:en":"Starbucks","official_name":"Starbucks Coffee","takeaway":"yes"},"geometry":{"type":"Point","coordinates":[103.7175589,1.548689]},"id":"node/4621599020"},{"type":"Feature","properties":{"@id":"node/4621599293","name":"Roti John Stall","name:en":"Roti John Stall","shop":"kiosk"},"geometry":{"type":"Point","coordinates":[102.2461917,2.2045051]},"id":"node/4621599293"},{"type":"Feature","properties":{"@id":"node/4621599294","addr:housenumber":"blok 44","addr:street":"Jalan Sri Sentosa 13","tourism":"hostel"},"geometry":{"type":"Point","coordinates":[101.6496515,3.0709751]},"id":"node/4621599294"},{"type":"Feature","properties":{"@id":"node/4621599296","amenity":"cafe","name":"Tea Garden"},"geometry":{"type":"Point","coordinates":[103.7167874,1.5486758]},"id":"node/4621599296"},{"type":"Feature","properties":{"@id":"node/4621599297","amenity":"toilets"},"geometry":{"type":"Point","coordinates":[103.7166443,1.5487682]},"id":"node/4621599297"},{"type":"Feature","properties":{"@id":"node/4621599420","amenity":"place_of_worship","name":"Chinese Temple","name:en":"Chinese Temple"},"geometry":{"type":"Point","coordinates":[102.2453656,2.1976801]},"id":"node/4621599420"},{"type":"Feature","properties":{"@id":"node/4621618389","name":"Pinky Red","name:en":"Pinky Red","shop":"gift"},"geometry":{"type":"Point","coordinates":[100.3843545,5.4312967]},"id":"node/4621618389"},{"type":"Feature","properties":{"@id":"node/4621740990","bus":"yes","highway":"bus_stop","public_transport":"platform"},"geometry":{"type":"Point","coordinates":[103.7222047,1.5272424]},"id":"node/4621740990"},{"type":"Feature","properties":{"@id":"node/4621764591","amenity":"restaurant","name":"Chinese Food Stalls","name:en":"Chinese Food Stalls"},"geometry":{"type":"Point","coordinates":[102.2467244,2.1966152]},"id":"node/4621764591"},{"type":"Feature","properties":{"@id":"node/4622276518","bus":"yes","highway":"bus_stop","name":"Kampung Kota I","public_transport":"platform","ref":"MFG1173","source":"https://openstreetcam.org/details/2189098/903/track-info"},"geometry":{"type":"Point","coordinates":[100.4346778,5.4260207]},"id":"node/4622276518"},{"type":"Feature","properties":{"@id":"node/4622276532","name":"Kampong Tanjong Putus","place":"hamlet"},"geometry":{"type":"Point","coordinates":[100.4217404,5.4256656]},"id":"node/4622276532"},{"type":"Feature","properties":{"@id":"node/4622276554","name":"Kampung Bukit Jelutong","place":"hamlet","source":"https://openstreetcam.org/details/2189098/858/track-info"},"geometry":{"type":"Point","coordinates":[100.4410953,5.4264899]},"id":"node/4622276554"},{"type":"Feature","properties":{"@id":"node/4622276758","amenity":"fast_food","cuisine":"malaysian","name":"Nasi Kanda Alikhan"},"geometry":{"type":"Point","coordinates":[100.4379499,5.4123893]},"id":"node/4622276758"},{"type":"Feature","properties":{"@id":"node/4622276780","bus":"yes","highway":"bus_stop","public_transport":"platform"},"geometry":{"type":"Point","coordinates":[100.4335436,5.4122509]},"id":"node/4622276780"},{"type":"Feature","properties":{"@id":"node/4622276798","name":"Hin Motor","repair":"yes","shop":"motorcycle"},"geometry":{"type":"Point","coordinates":[100.4194184,5.4109588]},"id":"node/4622276798"},{"type":"Feature","properties":{"@id":"node/4622656422","amenity":"cinema","brand":"MBO Cinemas","brand:wikidata":"Q17053599","brand:wikipedia":"en:MBO Cinemas","name":"MBO Cinemas","short_name":"MBO"},"geometry":{"type":"Point","coordinates":[102.2629635,2.1827911]},"id":"node/4622656422"},{"type":"Feature","properties":{"@id":"node/4623058793","addr:housenumber":"95","addr:street":"Jalan Tokong","amenity":"cafe","cuisine":"coffee_shop","name":"Aik Cheong Coffee Roaster","name:en":"Aik Cheong Coffee Roaster"},"geometry":{"type":"Point","coordinates":[102.2456488,2.1977869]},"id":"node/4623058793"},{"type":"Feature","properties":{"@id":"node/4623063489","amenity":"toilets","operator":"Pay to Use"},"geometry":{"type":"Point","coordinates":[102.24563,2.1976711]},"id":"node/4623063489"},{"type":"Feature","properties":{"@id":"node/4623063689","amenity":"cafe","name":"ABC and Cendol plus more","name:en":"ABC and Cendol plus more"},"geometry":{"type":"Point","coordinates":[102.2457741,2.1976664]},"id":"node/4623063689"},{"type":"Feature","properties":{"@id":"node/4623150451","alt_name:zh":"亚罗邦苏","name":"Alor Pongsu","name:ms":"Alor Pongsu","name:ms-Arab":"الور ڤوڠسو","name:zh":"亚罗邦士","place":"village","wikidata":"Q4734628","wikipedia":"en:Alor Pongsu"},"geometry":{"type":"Point","coordinates":[100.5886683,5.0524805]},"id":"node/4623150451"},{"type":"Feature","properties":{"@id":"node/4623361691","amenity":"school","name":"Sekolah Menengah Islam Zadut Taqwa","name:en":"Sekolah Menengah Islam Zadut Taqwa"},"geometry":{"type":"Point","coordinates":[101.5395384,3.0814359]},"id":"node/4623361691"},{"type":"Feature","properties":{"@id":"node/4623384089","bus":"yes","highway":"bus_stop","public_transport":"platform"},"geometry":{"type":"Point","coordinates":[103.7501205,1.4711566]},"id":"node/4623384089"},{"type":"Feature","properties":{"@id":"node/4623385518","addr:city":"Kuala Terengganu","addr:postcode":"21080","name":"Istana Syarqiyyah","tourism":"attraction"},"geometry":{"type":"Point","coordinates":[103.1683394,5.2590708]},"id":"node/4623385518"},{"type":"Feature","properties":{"@id":"node/4623519191","bus":"yes","highway":"bus_stop","public_transport":"platform"},"geometry":{"type":"Point","coordinates":[100.2537796,5.4776236]},"id":"node/4623519191"},{"type":"Feature","properties":{"@id":"node/4623519192","bus":"yes","highway":"bus_stop","name":"Kolej MSU","network":"Rapid Penang","network:wikidata":"Q4259055","operator":"Rapid Bus","operator:wikidata":"Q7294127","public_transport":"platform"},"geometry":{"type":"Point","coordinates":[100.3174613,5.4264599]},"id":"node/4623519192"},{"type":"Feature","properties":{"@id":"node/4623519992","bin":"yes","bus":"yes","departures_board":"realtime","highway":"bus_stop","name":"Belissa Row","network":"Rapid Penang","network:wikidata":"Q4259055","operator":"Rapid Bus","operator:wikidata":"Q7294127","public_transport":"platform","shelter":"yes"},"geometry":{"type":"Point","coordinates":[100.3101574,5.432509]},"id":"node/4623519992"},{"type":"Feature","properties":{"@id":"node/4623676621","bus":"yes","highway":"bus_stop","name":"Jalan Permatang Sungai Dua","public_transport":"platform","source":"https://www.mapillary.com/app/?pKey=r3ZvB0LHjRWa94KMEwjUjO&focus=photo"},"geometry":{"type":"Point","coordinates":[100.4263894,5.4820824]},"id":"node/4623676621"},{"type":"Feature","properties":{"@id":"node/4623676622","name":"Kampung Telor","place":"hamlet","source":"https://www.mapillary.com/app/?pKey=h3sTWiA2FKcPr9dpLn9eiI&focus=photo"},"geometry":{"type":"Point","coordinates":[100.4282484,5.4820277]},"id":"node/4623676622"},{"type":"Feature","properties":{"@id":"node/4623676631","amenity":"car_wash"},"geometry":{"type":"Point","coordinates":[100.4280534,5.4712199]},"id":"node/4623676631"},{"type":"Feature","properties":{"@id":"node/4623676634","name":"Kampung Tobiar","place":"hamlet"},"geometry":{"type":"Point","coordinates":[100.4327899,5.4695579]},"id":"node/4623676634"},{"type":"Feature","properties":{"@id":"node/4623676654","shop":"convenience"},"geometry":{"type":"Point","coordinates":[100.4301455,5.4638599]},"id":"node/4623676654"},{"type":"Feature","properties":{"@id":"node/4623676655","bus":"yes","highway":"bus_stop","name":"Jalan Permatang Sungai Dua","public_transport":"platform","source":"https://www.mapillary.com/app/?pKey=4HVBq0IGn9oHQK0btklOYM&focus=photo"},"geometry":{"type":"Point","coordinates":[100.4306259,5.462856]},"id":"node/4623676655"},{"type":"Feature","properties":{"@id":"node/4623676656","name":"Guar Kepayang","place":"hamlet","source":"https://www.mapillary.com/app/?pKey=IbrTrTcA1mWKI7GQaNZ1Zr&focus=photo"},"geometry":{"type":"Point","coordinates":[100.4334188,5.4626677]},"id":"node/4623676656"},{"type":"Feature","properties":{"@id":"node/4623676733","amenity":"fast_food","cuisine":"malaysian","name":"Mee Rebus Faisol"},"geometry":{"type":"Point","coordinates":[100.4299337,5.4468225]},"id":"node/4623676733"},{"type":"Feature","properties":{"@id":"node/4623676896","shop":"hairdresser"},"geometry":{"type":"Point","coordinates":[100.4293349,5.4450614]},"id":"node/4623676896"},{"type":"Feature","properties":{"@id":"node/4623676910","name":"Kedai Runcit Berkat","shop":"convenience"},"geometry":{"type":"Point","coordinates":[100.4295674,5.4415791]},"id":"node/4623676910"},{"type":"Feature","properties":{"@id":"node/4623676919","bus":"yes","highway":"bus_stop","public_transport":"platform"},"geometry":{"type":"Point","coordinates":[100.4302398,5.4371607]},"id":"node/4623676919"},{"type":"Feature","properties":{"@id":"node/4623708808","description":"Serviced apartments","email":"enquiry.kualalumpur@the-ascott.com","name":"Ascott Sentral","name:en":"Ascott Sentral","phone":"+60 3 2727 9999","rooms":"157","tourism":"hotel","website":"https://www.the-ascott.com/malaysia/kuala-lumpur/ascott-sentral-kuala-lumpur/"},"geometry":{"type":"Point","coordinates":[101.6849956,3.1311009]},"id":"node/4623708808"},{"type":"Feature","properties":{"@id":"node/4624447103","amenity":"bus_station","bus":"yes","public_transport":"station"},"geometry":{"type":"Point","coordinates":[115.2406649,5.2815332]},"id":"node/4624447103"},{"type":"Feature","properties":{"@id":"node/4624513307","name":"Kingfisher","shop":"alcohol"},"geometry":{"type":"Point","coordinates":[101.6856472,3.1308686]},"id":"node/4624513307"},{"type":"Feature","properties":{"@id":"node/4624769790","amenity":"post_box","name":"Postbox","name:en":"Postbox","operator":"Pos Malaysia","operator:wikidata":"Q6112623","operator:wikipedia":"en:Pos Malaysia"},"geometry":{"type":"Point","coordinates":[116.0830581,5.9680319]},"id":"node/4624769790"},{"type":"Feature","properties":{"@id":"node/4624896859","addr:housenumber":"39","addr:street":"Jalan Balik Bukit","amenity":"fuel","brand":"Caltex","brand:wikidata":"Q277470","brand:wikipedia":"en:Caltex","name":"Caltex"},"geometry":{"type":"Point","coordinates":[103.1327067,5.3265205]},"id":"node/4624896859"},{"type":"Feature","properties":{"@id":"node/4625321673","brand":"John Shun","name":"John Shun","name:en":"John Shun","name:ms":"John Shun","tourism":"hotel"},"geometry":{"type":"Point","coordinates":[101.6149399,3.133294]},"id":"node/4625321673"},{"type":"Feature","properties":{"@id":"node/4625322390","addr:housenumber":"91","addr:postcode":"59100","addr:street":"Jalan Maarof","amenity":"dentist","email":"bangsar@mydentist.com.my","healthcare":"dentist","name":"mydentist","opening_hours":"Mo-Fr 10:00 -19:00;Sa 10:00-18:00","phone":"+60 189189191","website":"https://www.mydentist.com.my/"},"geometry":{"type":"Point","coordinates":[101.6726913,3.1325173]},"id":"node/4625322390"},{"type":"Feature","properties":{"@id":"node/4625323077","amenity":"cafe","name":"Cafe Tiamo","name:en":"Cafe Tiamo"},"geometry":{"type":"Point","coordinates":[101.6512162,3.1127484]},"id":"node/4625323077"},{"type":"Feature","properties":{"@id":"node/4625323080","addr:city":"Kuala Lumpur","addr:place":"Taman Desa","name":"Ikhlas TD Auto Service","name:en":"Ikhlas TD Auto Service","shop":"car_repair"},"geometry":{"type":"Point","coordinates":[101.6783594,3.0971036]},"id":"node/4625323080"},{"type":"Feature","properties":{"@id":"node/4625323081","amenity":"restaurant","name":"Peng Wah","name:en":"Peng Wah"},"geometry":{"type":"Point","coordinates":[101.6778063,3.0969679]},"id":"node/4625323081"},{"type":"Feature","properties":{"@id":"node/4625323085","addr:city":"Kuala Lumpur","addr:place":"Taman Desa","name":"Worldwide Pets","name:en":"Worldwide Pets","shop":"pet"},"geometry":{"type":"Point","coordinates":[101.6781568,3.0968272]},"id":"node/4625323085"},{"type":"Feature","properties":{"@id":"node/4625323086","amenity":"recycling","recycling:clothes":"yes","recycling_type":"container"},"geometry":{"type":"Point","coordinates":[101.6776981,3.0967548]},"id":"node/4625323086"},{"type":"Feature","properties":{"@id":"node/4625323088","addr:city":"Kuala Lumpur","addr:place":"Taman Desa","name":"Yamaha Musical Instrument Store","name:en":"Yamaha Musical Instrument Store","operator":"KL Music Sdn Bhd","shop":"musical_instrument"},"geometry":{"type":"Point","coordinates":[101.6780924,3.096849]},"id":"node/4625323088"},{"type":"Feature","properties":{"@id":"node/4625323164","bench":"yes","bin":"yes","bus":"yes","highway":"bus_stop","lit":"yes","name":"SMK La Salle","public_transport":"platform","ref":"KL1084","route_ref":"750;751;780","shelter":"yes"},"geometry":{"type":"Point","coordinates":[101.6831757,3.1269286]},"id":"node/4625323164"},{"type":"Feature","properties":{"@id":"node/4625323165","addr:city":"Kuala Lumpur","addr:postcode":"50470","addr:street":"Jalan Tun Sambanthan","addr:suburb":"Brickfields","level":"0","name":"Madras","shop":"jewelry","wheelchair":"limited"},"geometry":{"type":"Point","coordinates":[101.683903,3.1291571]},"id":"node/4625323165"},{"type":"Feature","properties":{"@id":"node/4625323166","alt_name":"NU Sentral","bench":"yes","bus":"yes","highway":"bus_stop","name":"KL Sentral","name:en":"KL Sentral","name:ms":"KL Sentral","network":"Rapid KL Bus","operator":"Rapid Bus;Causeway Link","public_transport":"platform","ref":"KL1079","route_ref":"600;601;640;650;750;751;772;780;782;821","shelter":"yes"},"geometry":{"type":"Point","coordinates":[101.6876181,3.133018]},"id":"node/4625323166"},{"type":"Feature","properties":{"@id":"node/4625323457","addr:city":"Dataran Sunway","addr:housenumber":"11-1","addr:postcode":"47810","addr:street":"Jalan PJU 5/15","brand":"Argon 18","facebook":"https://www.facebook.com/MENG-THAI-Bicycle-Centre-127000394018736/","name":"Meng Thai","opening_hours":"11:30-20:30, Su 13:30-18:30","phone":"+60 36148 3353","service:bicycle:parts":"yes","service:bicycle:repair":"yes","service:bicycle:retail":"yes","shop":"bicycle","website":"http://mengthaibc.blogspot.my/"},"geometry":{"type":"Point","coordinates":[101.5916866,3.1524618]},"id":"node/4625323457"},{"type":"Feature","properties":{"@id":"node/4625323458","amenity":"restaurant","internet_access":"wlan","name":"Khalifah"},"geometry":{"type":"Point","coordinates":[101.5924887,3.1509658]},"id":"node/4625323458"},{"type":"Feature","properties":{"@id":"node/4625323558","amenity":"restaurant","name":"Kuah Desa","name:en":"Kuah Desa"},"geometry":{"type":"Point","coordinates":[101.6778555,3.0969513]},"id":"node/4625323558"},{"type":"Feature","properties":{"@id":"node/4625323708","addr:city":"Kuala Lumpur","addr:place":"Taman Desa","amenity":"doctors","healthcare":"doctor","healthcare:speciality:de":"paediatrics","name":"Klinik Pakar Kanak-kanak KB","name:en":"KB Child Specialist Clinic","name:ms":"Klinik Pakar Kanak-kanak KB"},"geometry":{"type":"Point","coordinates":[101.6773659,3.0963893]},"id":"node/4625323708"},{"type":"Feature","properties":{"@id":"node/4625323711","bus":"yes","highway":"bus_stop","name":"IPD Brickfields","public_transport":"platform","ref":"KL1086"},"geometry":{"type":"Point","coordinates":[101.6824338,3.1262183]},"id":"node/4625323711"},{"type":"Feature","properties":{"@id":"node/4625323941","amenity":"fast_food","cuisine":"burger","name":"Ramly"},"geometry":{"type":"Point","coordinates":[101.6829107,3.1271362]},"id":"node/4625323941"},{"type":"Feature","properties":{"@id":"node/4625323942","amenity":"pharmacy","healthcare":"pharmacy","name":"Nadia"},"geometry":{"type":"Point","coordinates":[101.6832923,3.1278723]},"id":"node/4625323942"},{"type":"Feature","properties":{"@id":"node/4625323943","addr:city":"Kuala Lumpur","addr:postcode":"50470","addr:street":"Jalan Tun Sambanthan","addr:suburb":"Brickfields","amenity":"restaurant","cuisine":"indian","level":"0","name":"Seetharam"},"geometry":{"type":"Point","coordinates":[101.6837454,3.1288252]},"id":"node/4625323943"},{"type":"Feature","properties":{"@id":"node/4625323947","addr:street":"Jalan Telawi","amenity":"fast_food","brand":"Domino's","brand:wikidata":"Q839466","brand:wikipedia":"en:Domino's Pizza","cuisine":"pizza","name":"Domino's","short_name":"Domino's","source":"https://openstreetcam.org/details/2390702/95","takeaway":"yes"},"geometry":{"type":"Point","coordinates":[101.6705899,3.1325923]},"id":"node/4625323947"},{"type":"Feature","properties":{"@id":"node/4625323989","addr:city":"Kuala Lumpur","addr:place":"3rd Mile Square","addr:street":"Jalan Klang Lama","amenity":"restaurant","indoor_seating":"yes","level":"1","name":"Kannichikan Yakiniku","name:en":"Kannichikan Yakiniku","outdoor_seating":"no","short_name":"KNK"},"geometry":{"type":"Point","coordinates":[101.6775651,3.1040527]},"id":"node/4625323989"},{"type":"Feature","properties":{"@id":"node/4625323990","bench":"yes","bus":"yes","highway":"bus_stop","name":"Wisma Buddist","public_transport":"platform","ref":"KL1284","shelter":"yes"},"geometry":{"type":"Point","coordinates":[101.6783817,3.1081787]},"id":"node/4625323990"},{"type":"Feature","properties":{"@id":"node/4625323991","addr:city":"Kuala Lumpur","addr:street":"Jalan Klang Lama","name":"CNC Car Advance","name:en":"CNC Car Advance","shop":"car"},"geometry":{"type":"Point","coordinates":[101.678207,3.1085035]},"id":"node/4625323991"},{"type":"Feature","properties":{"@id":"node/4625323992","check_date":"2025-10-31","name":"Wenzan","name:en":"Wenzan","name:ms":"Wenzan","shop":"car"},"geometry":{"type":"Point","coordinates":[101.6781728,3.1124774]},"id":"node/4625323992"},{"type":"Feature","properties":{"@id":"node/4625324418","bus":"yes","highway":"bus_stop","name":"Bangsar Telawi (Utara)","public_transport":"platform","ref":"KL1129"},"geometry":{"type":"Point","coordinates":[101.6705091,3.1345278]},"id":"node/4625324418"},{"type":"Feature","properties":{"@id":"node/4625324423","amenity":"kindergarten","name":"Taska Tulip"},"geometry":{"type":"Point","coordinates":[101.6702665,3.1409518]},"id":"node/4625324423"},{"type":"Feature","properties":{"@id":"node/4625324424","amenity":"kindergarten","name":"Al-Hidayah"},"geometry":{"type":"Point","coordinates":[101.6696746,3.1408048]},"id":"node/4625324424"},{"type":"Feature","properties":{"@id":"node/4625324852","addr:city":"Kuala Lumpur","addr:housenumber":"160","addr:postcode":"59100","addr:street":"Jalan Maarof","amenity":"clinic","facebook":"https://www.facebook.com/clinicrxmy/","healthcare":"clinic","healthcare:speciality":"plastic_surgery","name":"Clinic RX","opening_hours":"Mo-Fr 10:00-19:00; Sa 09:00-18:00; Su, PH off","phone":"+6014 9649121","website":"https://clinicrx.com.my/"},"geometry":{"type":"Point","coordinates":[101.6689238,3.1423929]},"id":"node/4625324852"},{"type":"Feature","properties":{"@id":"node/4625377365","addr:city":"Kuala Lumpur","addr:housenumber":"8","addr:postcode":"50250","addr:street":"Jalan Cendana","email":"valen.esprit@gmail.com","name":"Summer Suites Residences","name:en":"Summer Suites Residences","operator":"Mercu","phone":"+6016 316 9986","stars":"4","tourism":"apartment","website":"https://summersuites.com.my/"},"geometry":{"type":"Point","coordinates":[101.704979,3.1589074]},"id":"node/4625377365"},{"type":"Feature","properties":{"@id":"node/4625396045","addr:city":"Kuala Lumpur","addr:housenumber":"138","addr:postcode":"50450","addr:street":"Jalan Ampang","brand":"Maya","email":"info@hotelmaya.com.my","internet_access":"wlan","internet_access:fee":"no","name":"Hotel Maya","name:en":"Maya Hotel","name:ms":"Hotel Maya","phone":"+60 3 2711 8866","stars":"5","tourism":"hotel","website":"https://www.hotelmaya.com.my/"},"geometry":{"type":"Point","coordinates":[101.7080652,3.1586497]},"id":"node/4625396045"},{"type":"Feature","properties":{"@id":"node/4625432519","name":"Pro Works","shop":"car_repair"},"geometry":{"type":"Point","coordinates":[101.5924909,3.1505558]},"id":"node/4625432519"},{"type":"Feature","properties":{"@id":"node/4625443377","name":"Chrizen","shop":"hairdresser"},"geometry":{"type":"Point","coordinates":[101.5922626,3.150945]},"id":"node/4625443377"},{"type":"Feature","properties":{"@id":"node/4625444510","amenity":"restaurant","cuisine":"malaysian","name":"Arimau Nasi Lemak Berlauk","takeaway":"yes"},"geometry":{"type":"Point","coordinates":[101.5922161,3.15166]},"id":"node/4625444510"},{"type":"Feature","properties":{"@id":"node/4625444511","amenity":"restaurant","cuisine":"nasi_kandar","diet:halal":"yes","name":"Nasi Kandar Padang Kota","source":"https://openstreetcam.org/details/2098478/190"},"geometry":{"type":"Point","coordinates":[101.5919445,3.1516514]},"id":"node/4625444511"},{"type":"Feature","properties":{"@id":"node/4625553718","brand":"7-Eleven","brand:wikidata":"Q259340","brand:wikipedia":"en:7-Eleven","currency:MYR":"yes","name":"7-Eleven","operator":"7-Eleven Malaysia Sdn Bhd","payment:cash":"yes","payment:coins":"yes","payment:touchngo":"yes","payment:visa":"yes","phone":"+603-2142 1136","shop":"convenience","short_name":"7-11","website":"https://www.7eleven.com.my/"},"geometry":{"type":"Point","coordinates":[101.6104634,3.1506463]},"id":"node/4625553718"},{"type":"Feature","properties":{"@id":"node/4625586055","name":"EG Hair Studio","shop":"hairdresser"},"geometry":{"type":"Point","coordinates":[100.4301859,5.5130152]},"id":"node/4625586055"},{"type":"Feature","properties":{"@id":"node/4625586056","shop":"paint"},"geometry":{"type":"Point","coordinates":[100.4297025,5.5129572]},"id":"node/4625586056"},{"type":"Feature","properties":{"@id":"node/4625586057","name":"GNP Motor","shop":"motorcycle"},"geometry":{"type":"Point","coordinates":[100.4297407,5.5105246]},"id":"node/4625586057"},{"type":"Feature","properties":{"@id":"node/4625586067","name":"Bundle","second_hand":"only","shop":"clothes"},"geometry":{"type":"Point","coordinates":[100.4293175,5.5017612]},"id":"node/4625586067"},{"type":"Feature","properties":{"@id":"node/4625637083","amenity":"restaurant","cuisine":"malaysian","name":"Eain Ikan Bakar"},"geometry":{"type":"Point","coordinates":[100.4378728,5.5781712]},"id":"node/4625637083"},{"type":"Feature","properties":{"@id":"node/4625649203","addr:city":"Kuala Lumpur","addr:housenumber":"38","addr:postcode":"59100","addr:street":"Jalan Telawi","amenity":"restaurant","cuisine":"indian","name":"Kayu Nasi Kandar","opening_hours":"24/7","phone":"+60 17 847 2786","takeaway":"yes"},"geometry":{"type":"Point","coordinates":[101.6706429,3.1312761]},"id":"node/4625649203"},{"type":"Feature","properties":{"@id":"node/4625649277","amenity":"parking","fee":"yes","parking":"multi-storey"},"geometry":{"type":"Point","coordinates":[101.6720756,3.1301328]},"id":"node/4625649277"},{"type":"Feature","properties":{"@id":"node/4625649281","addr:country":"MY","brand":"KK Super Mart","brand:wikidata":"Q95721993","name":"KK Super Mart","operator":"KK Supermart & Superstore Sdn Bhd","shop":"convenience","short_name":"KK","website":"https://kkgroup.my/kk-super-mart"},"geometry":{"type":"Point","coordinates":[101.6718106,3.1315639]},"id":"node/4625649281"},{"type":"Feature","properties":{"@id":"node/4625649282","brand":"7-Eleven","brand:wikidata":"Q259340","brand:wikipedia":"en:7-Eleven","currency:MYR":"yes","name":"7-Eleven","operator":"7-Eleven Malaysia Sdn Bhd","payment:cash":"yes","payment:coins":"yes","payment:touchngo":"yes","payment:visa":"yes","phone":"+603-2142 1136","shop":"convenience","short_name":"7-11","website":"https://www.7eleven.com.my/"},"geometry":{"type":"Point","coordinates":[101.6715184,3.131449]},"id":"node/4625649282"},{"type":"Feature","properties":{"@id":"node/4625649283","name":"Tedboy","opening_hours":"8:00-20:00","shop":"bakery"},"geometry":{"type":"Point","coordinates":[101.6714566,3.1314509]},"id":"node/4625649283"},{"type":"Feature","properties":{"@id":"node/4625649284","amenity":"pub","name":"Healy Mac's","pub":"irish"},"geometry":{"type":"Point","coordinates":[101.6709514,3.1312678]},"id":"node/4625649284"},{"type":"Feature","properties":{"@id":"node/4625655234","name":"QQ North Automobile Sdn Bhd","shop":"car","source:name":"https://openstreetcam.org/details/2286662/961/track-info"},"geometry":{"type":"Point","coordinates":[100.4721809,5.6077975]},"id":"node/4625655234"},{"type":"Feature","properties":{"@id":"node/4627067594","addr:street":"Lorong Produktiviti","amenity":"cafe","name":"stall next post office","name:en":"stall next post office","operator":"Pak yop"},"geometry":{"type":"Point","coordinates":[101.6434645,3.1013728]},"id":"node/4627067594"},{"type":"Feature","properties":{"@id":"node/4627405891","name":"Zoo Body Tattoo","name:en":"Zoo Body Tattoo","shop":"beauty"},"geometry":{"type":"Point","coordinates":[101.71143,3.144861]},"id":"node/4627405891"},{"type":"Feature","properties":{"@id":"node/4627601320","amenity":"shelter","shelter_type":"weather_shelter"},"geometry":{"type":"Point","coordinates":[101.6581826,3.1187433]},"id":"node/4627601320"},{"type":"Feature","properties":{"@id":"node/4627767804","brand":"7-Eleven","brand:wikidata":"Q259340","brand:wikipedia":"en:7-Eleven","currency:MYR":"yes","name":"7-Eleven","operator":"7-Eleven Malaysia Sdn Bhd","payment:cash":"yes","payment:coins":"yes","payment:touchngo":"yes","payment:visa":"yes","phone":"+603-2142 1136","shop":"convenience","short_name":"7-11","website":"https://www.7eleven.com.my/"},"geometry":{"type":"Point","coordinates":[101.5821007,3.1620301]},"id":"node/4627767804"},{"type":"Feature","properties":{"@id":"node/4627772477","addr:city":"Kuala Lumpur","addr:housenumber":"25","addr:postcode":"50200","addr:street":"Tengkat Tong Shin","amenity":"restaurant","cuisine":"vietnamese","description":"Delicious vietnamese cuisine","email":"pliao800@gmail.com","name":"Sao Nam","opening_hours":"12:30-14:30,19:30-22:30","phone":"+60321441225","website":"https://www.saonam.com.my/"},"geometry":{"type":"Point","coordinates":[101.7075938,3.145855]},"id":"node/4627772477"},{"type":"Feature","properties":{"@id":"node/4628079590","name":"Work ware","name:en":"Work ware","shop":"clothes"},"geometry":{"type":"Point","coordinates":[102.2494788,2.2000271]},"id":"node/4628079590"},{"type":"Feature","properties":{"@id":"node/4628175789","name":"Second hand clothes","name:en":"Second hand clothes","shop":"clothes"},"geometry":{"type":"Point","coordinates":[102.2493275,2.2000257]},"id":"node/4628175789"},{"type":"Feature","properties":{"@id":"node/4628179389","brand":"7-Eleven","brand:wikidata":"Q259340","brand:wikipedia":"en:7-Eleven","currency:MYR":"yes","name":"7-Eleven","operator":"7-Eleven Malaysia Sdn Bhd","payment:cash":"yes","payment:coins":"yes","payment:touchngo":"yes","payment:visa":"yes","phone":"+603-2142 1136","shop":"convenience","short_name":"7-11","website":"https://www.7eleven.com.my/"},"geometry":{"type":"Point","coordinates":[102.2455087,2.197574]},"id":"node/4628179389"},{"type":"Feature","properties":{"@id":"node/4628472103","name":"Sri Rompin","name:en":"Sri Rompin","tourism":"hotel"},"geometry":{"type":"Point","coordinates":[103.4843152,2.7980899]},"id":"node/4628472103"},{"type":"Feature","properties":{"@id":"node/4629611814","addr:city":"Kuala Lumpur","addr:housenumber":"53","addr:postcode":"50000","addr:street":"Jalan Tun H.S. Lee","email":"contactus@reggaehostelsmalaysia.com","facebook":"https://www.facebook.com/reggaemansionkualalumpur","internet_access":"yes","internet_access:fee":"no","name":"Reggae Mansion Hostel","phone":"+603 20726877;+603 20726878","tourism":"hostel","website":"https://www.reggaehostelsmalaysia.com/"},"geometry":{"type":"Point","coordinates":[101.6971161,3.1480038]},"id":"node/4629611814"},{"type":"Feature","properties":{"@id":"node/4629689962","amenity":"bank","atm":"yes","branch":"Benteng","brand":"HSBC","brand:wikidata":"Q190464","brand:wikipedia":"en:HSBC","name":"HSBC","name:it":"HSBC"},"geometry":{"type":"Point","coordinates":[101.6960614,3.1479776]},"id":"node/4629689962"},{"type":"Feature","properties":{"@id":"node/4629689963","amenity":"pharmacy","brand":"Guardian","brand:wikidata":"Q63371124","brand:wikipedia":"ms:Guardian Malaysia","dispensing":"yes","healthcare":"pharmacy","name":"Guardian"},"geometry":{"type":"Point","coordinates":[101.6970696,3.1489042]},"id":"node/4629689963"},{"type":"Feature","properties":{"@id":"node/4629689964","addr:street":"Jalan Hang Kasturi","name":"Hotlink","name:en":"Hotlink","shop":"mobile_phone"},"geometry":{"type":"Point","coordinates":[101.6959408,3.1460338]},"id":"node/4629689964"},{"type":"Feature","properties":{"@id":"node/4629689965","addr:city":"Kuala Lumpur","addr:housenumber":"52","addr:postcode":"50000","addr:street":"Jalan Tun H.S. Lee","brand":"Hollywood Inn","description":"Rooms starting from RM20. No online reviews whatsoever.","name":"Hollywood Inn","name:en":"Hollywood Inn","phone":"+60 32031 5668","stars":"1","tourism":"hotel"},"geometry":{"type":"Point","coordinates":[101.6974265,3.1481039]},"id":"node/4629689965"},{"type":"Feature","properties":{"@id":"node/4629689966","addr:city":"Kuala Lumpur","addr:housenumber":"48","addr:postcode":"50000","addr:street":"Jalan Tun Perak","brand":"YY48","email":"enquiries@yy48hotel.com.my","facebook":"https://www.facebook.com/YY48-Hotel-1584782181749657/","name":"YY48","name:en":"YY48","name:ms":"YY48","phone":"+60 32022 4448","tourism":"hotel","website":"http://www.yy48hotel.com.my/"},"geometry":{"type":"Point","coordinates":[101.6973736,3.14855]},"id":"node/4629689966"},{"type":"Feature","properties":{"@id":"node/4629725711","addr:city":"Kuala Lumpur","addr:housenumber":"1&3","addr:postcode":"50000","addr:street":"Jalan Tun H.S. Lee","level":"1","name":"Drop Inn Logde","phone":"+60 32078 6314","tourism":"hotel"},"geometry":{"type":"Point","coordinates":[101.6982781,3.1494094]},"id":"node/4629725711"},{"type":"Feature","properties":{"@id":"node/4629762809","addr:city":"Kuala Lumpur","addr:housenumber":"49","addr:postcode":"50100","addr:street":"Leboh Ampang","brand":"1915","name":"1915","name:en":"1915","name:ms":"1915","name:zh":"1915","operator":"Mutiara Meriah Sdn Bhd","phone":"+6032026 0042","source":"http://www.hotel1915kl.com.my/","stars":"2","tourism":"hotel"},"geometry":{"type":"Point","coordinates":[101.6972422,3.1488086]},"id":"node/4629762809"},{"type":"Feature","properties":{"@id":"node/4629762811","addr:city":"Kuala Lumpur","addr:housenumber":"19","addr:postcode":"50050","addr:street":"Jalan Tun Perak","brand":"Hotel Al-Amin","name":"Hotel Al-Amin","name:ms":"Hotel Al-Amin","phone":"+60 32026 2254","tourism":"hotel"},"geometry":{"type":"Point","coordinates":[101.696784,3.1488268]},"id":"node/4629762811"},{"type":"Feature","properties":{"@id":"node/4629762812","amenity":"fast_food","cuisine":"juice","name":"Boost","name:en":"Boost"},"geometry":{"type":"Point","coordinates":[101.6967051,3.1489255]},"id":"node/4629762812"},{"type":"Feature","properties":{"@id":"node/4629828983","amenity":"restaurant","name":"Wak Nuar Ayam Penyet"},"geometry":{"type":"Point","coordinates":[101.7096386,3.1656835]},"id":"node/4629828983"},{"type":"Feature","properties":{"@id":"node/4630792389","name":"Kampung Datuk Keramat","name:en":"Kampung Datuk Keramat","name:ms":"Kampung Datuk Keramat","name:ms-Arab":"كامڤوڠ داتوق كرامات","name:zh":"甘榜拿督克拉末","place":"suburb","wikidata":"Q6359422","wikipedia":"en:Kampung Datuk Keramat"},"geometry":{"type":"Point","coordinates":[101.72597,3.168953]},"id":"node/4630792389"},{"type":"Feature","properties":{"@id":"node/4631071289","name":"Tambun rock art","name:en":"Wall paintings","tourism":"artwork"},"geometry":{"type":"Point","coordinates":[101.1304432,4.602321]},"id":"node/4631071289"},{"type":"Feature","properties":{"@id":"node/4631163593","addr:city":"Kuala Lumpur","addr:housenumber":"50","addr:postcode":"59100","addr:street":"Jalan Telawi","email":"contact@number76.com","facebook":"https://www.facebook.com/paddling76","name":"Number76","opening_hours":"10:00-21:00","phone":"+603 2283 1776","shop":"hairdresser","website":"https://www.number76.com/"},"geometry":{"type":"Point","coordinates":[101.6705749,3.1308121]},"id":"node/4631163593"},{"type":"Feature","properties":{"@id":"node/4631163595","amenity":"post_box","name":"Pos Malaysia Post Box","operator":"Pos Malaysia","operator:wikidata":"Q6112623","operator:wikipedia":"en:Pos Malaysia"},"geometry":{"type":"Point","coordinates":[101.6704733,3.1308732]},"id":"node/4631163595"},{"type":"Feature","properties":{"@id":"node/4631178365","addr:housenumber":"66","addr:postcode":"59100","addr:street":"Jalan Telawi","amenity":"bank","atm":"yes","brand":"HSBC","brand:wikidata":"Q190464","brand:wikipedia":"en:HSBC","name":"HSBC"},"geometry":{"type":"Point","coordinates":[101.6705687,3.1301124]},"id":"node/4631178365"},{"type":"Feature","properties":{"@id":"node/4631178366","addr:city":"Kuala Lumpur","addr:housenumber":"62","addr:postcode":"59100","addr:street":"Jalan Telawi","amenity":"dentist","email":"enquiries@imperialdsc.com","facebook":"https://www.facebook.com/imperialdentalspecialistcentre/","healthcare":"dentist","name":"Imperial Dental Specialist Centre","opening_hours":"09:00-20:00; Su 09:00-18:00","phone":"+603 2106 5449","website":"https://www.imperialdsc.com/"},"geometry":{"type":"Point","coordinates":[101.6705562,3.1302786]},"id":"node/4631178366"},{"type":"Feature","properties":{"@id":"node/4631345990","addr:housenumber":"20-G","addr:postcode":"47180","addr:street":"Jalan 5A/2C","amenity":"restaurant","name":"Rumah Makan Cibiuk","name:en":"Rumah Makan Cibiuk","opening_hours":"Sa-Th 11:00-23:00; Fr 14:30-23:00"},"geometry":{"type":"Point","coordinates":[101.646079,3.046864]},"id":"node/4631345990"},{"type":"Feature","properties":{"@id":"node/4631422689","name":"Street Art #3 (Kopi 'O')","name:en":"Street Art #3 (Kopi 'O')","tourism":"artwork"},"geometry":{"type":"Point","coordinates":[101.0787079,4.5973294]},"id":"node/4631422689"},{"type":"Feature","properties":{"@id":"node/4631422690","name":"Streetart #2","name:en":"Streetart #2","tourism":"artwork"},"geometry":{"type":"Point","coordinates":[101.0768477,4.5978911]},"id":"node/4631422690"},{"type":"Feature","properties":{"@id":"node/4631422989","name":"Street Art #1 (Paper Plane)","name:en":"Street Art #1 (Paper Plane)","tourism":"artwork"},"geometry":{"type":"Point","coordinates":[101.0762343,4.598069]},"id":"node/4631422989"},{"type":"Feature","properties":{"@id":"node/4631432990","name":"Streetart #5","name:en":"Streetart","tourism":"artwork"},"geometry":{"type":"Point","coordinates":[101.07881,4.5958712]},"id":"node/4631432990"},{"type":"Feature","properties":{"@id":"node/4631558289","name":"Street art","name:en":"Street art","tourism":"artwork"},"geometry":{"type":"Point","coordinates":[101.0771498,4.5965346]},"id":"node/4631558289"},{"type":"Feature","properties":{"@id":"node/4631661789","name":"Gerbang Malam","name:en":"Gerbang Malam","tourism":"attraction"},"geometry":{"type":"Point","coordinates":[101.084715,4.5964402]},"id":"node/4631661789"},{"type":"Feature","properties":{"@id":"node/4631705470","access":"private","amenity":"charging_station","capacity":"4","name":"Cosmos","name:en":"Cosmos","name:ms":"Cosmos","note":"comos vehicle only","operator":"COSMOS Bangsar"},"geometry":{"type":"Point","coordinates":[101.6788434,3.1277894]},"id":"node/4631705470"},{"type":"Feature","properties":{"@id":"node/4631711936","addr:city":"Kuala Lumpur","addr:housenumber":"2","addr:postcode":"59100","addr:street":"Lorong Ara Kiri  2","alt_name":"Nam Chun","amenity":"food_court","capacity":"100","cuisine":"chinese","delivery":"no","name":"Nam Chuan","opening_hours":"6:00-23:00","outdoor_seating":"yes","takeaway":"yes"},"geometry":{"type":"Point","coordinates":[101.6694583,3.1275305]},"id":"node/4631711936"},{"type":"Feature","properties":{"@id":"node/4632155789","amenity":"restaurant","name":"Sawadee Thai","name:en":"Sawadee Thai"},"geometry":{"type":"Point","coordinates":[101.815938,2.9824872]},"id":"node/4632155789"},{"type":"Feature","properties":{"@id":"node/4632213832","name":"Ladang Chador","place":"locality"},"geometry":{"type":"Point","coordinates":[103.108399,4.9371374]},"id":"node/4632213832"},{"type":"Feature","properties":{"@id":"node/4632213839","amenity":"place_of_worship","religion":"muslim"},"geometry":{"type":"Point","coordinates":[103.0302677,4.8812664]},"id":"node/4632213839"},{"type":"Feature","properties":{"@id":"node/4632213840","amenity":"school","name":"Sekolah Kebangsaan Lubuk Periuk"},"geometry":{"type":"Point","coordinates":[103.0435883,4.88663]},"id":"node/4632213840"},{"type":"Feature","properties":{"@id":"node/4632213841","name":"Kampung Baharu Lubuk Periuk","place":"village"},"geometry":{"type":"Point","coordinates":[103.066349,4.8914559]},"id":"node/4632213841"},{"type":"Feature","properties":{"@id":"node/4632506677","amenity":"clinic","healthcare":"clinic","name":"Klinik Wawasan"},"geometry":{"type":"Point","coordinates":[100.5122018,5.7303705]},"id":"node/4632506677"},{"type":"Feature","properties":{"@id":"node/4632509202","name":"Syarikat Bersama Hati","shop":"electronics"},"geometry":{"type":"Point","coordinates":[100.5190152,5.7005789]},"id":"node/4632509202"},{"type":"Feature","properties":{"@id":"node/4632509203","name":"Lif Cheow","name:en":"Lif Cheow","name:ms":"Lif Cheow","shop":"car_repair"},"geometry":{"type":"Point","coordinates":[100.5154328,5.6974187]},"id":"node/4632509203"},{"type":"Feature","properties":{"@id":"node/4632509204","amenity":"clinic","healthcare":"clinic","name":"Klinik Dr Silan"},"geometry":{"type":"Point","coordinates":[100.5146368,5.6953167]},"id":"node/4632509204"},{"type":"Feature","properties":{"@id":"node/4632509205","shop":"tyres"},"geometry":{"type":"Point","coordinates":[100.5143253,5.6947798]},"id":"node/4632509205"},{"type":"Feature","properties":{"@id":"node/4632509206","amenity":"car_wash"},"geometry":{"type":"Point","coordinates":[100.5129998,5.6941683]},"id":"node/4632509206"},{"type":"Feature","properties":{"@id":"node/4632509207","amenity":"restaurant","cuisine":"malaysian"},"geometry":{"type":"Point","coordinates":[100.5123753,5.6933713]},"id":"node/4632509207"},{"type":"Feature","properties":{"@id":"node/4632509208","amenity":"restaurant","cuisine":"malaysian","name":"Lepak","name:en":"Lepak","name:ms":"Lepak"},"geometry":{"type":"Point","coordinates":[100.5091385,5.6864525]},"id":"node/4632509208"},{"type":"Feature","properties":{"@id":"node/4632509242","amenity":"restaurant","cuisine":"chinese","name":"Restoran Xiao Siang"},"geometry":{"type":"Point","coordinates":[100.5075511,5.6779458]},"id":"node/4632509242"},{"type":"Feature","properties":{"@id":"node/4632509256","amenity":"restaurant","cuisine":"chinese","name":"Xian Wei"},"geometry":{"type":"Point","coordinates":[100.5070694,5.677715]},"id":"node/4632509256"},{"type":"Feature","properties":{"@id":"node/4632509262","name":"Apple Inn","tourism":"hotel"},"geometry":{"type":"Point","coordinates":[100.5067307,5.677806]},"id":"node/4632509262"},{"type":"Feature","properties":{"@id":"node/4632509422","amenity":"restaurant","cuisine":"malaysian","name":"Baryani Gam 88"},"geometry":{"type":"Point","coordinates":[100.494446,5.6809177]},"id":"node/4632509422"},{"type":"Feature","properties":{"@id":"node/4632509424","name":"Khan Karpet","shop":"interior_decoration"},"geometry":{"type":"Point","coordinates":[100.4940568,5.6810006]},"id":"node/4632509424"},{"type":"Feature","properties":{"@id":"node/4632509425","brand":"7-Eleven","brand:wikidata":"Q259340","brand:wikipedia":"en:7-Eleven","currency:MYR":"yes","name":"7-Eleven","opening_hours":"24/7","operator":"7-Eleven Malaysia Sdn Bhd","payment:cash":"yes","payment:coins":"yes","payment:touchngo":"yes","payment:visa":"yes","phone":"+603-2142 1136","shop":"convenience","short_name":"7-11","website":"https://www.7eleven.com.my/"},"geometry":{"type":"Point","coordinates":[100.4939549,5.681038]},"id":"node/4632509425"},{"type":"Feature","properties":{"@id":"node/4632509644","name":"Art Chee Motor","repair":"yes","shop":"motorcycle"},"geometry":{"type":"Point","coordinates":[100.4647607,5.662761]},"id":"node/4632509644"},{"type":"Feature","properties":{"@id":"node/4633876667","name":"Kampung Olak Madu","place":"village"},"geometry":{"type":"Point","coordinates":[100.5691052,5.5406203]},"id":"node/4633876667"},{"type":"Feature","properties":{"@id":"node/4634085189","amenity":"restaurant","name":"Chinese hawker Centre","name:en":"Chinese hawker Centre"},"geometry":{"type":"Point","coordinates":[102.24991,2.2002889]},"id":"node/4634085189"},{"type":"Feature","properties":{"@id":"node/4634085290","name":"Koong On Loong Co. Sdn. Bhd.","name:en":"Koong On Loong Co. Sdn. Bhd.","shop":"jewelry"},"geometry":{"type":"Point","coordinates":[102.2497463,2.1966537]},"id":"node/4634085290"},{"type":"Feature","properties":{"@id":"node/4634085489","addr:city":"Melaka","addr:housenumber":"93","addr:postcode":"75200","addr:street":"Jalan Tun Tan Cheng Lock","name":"Abdul Antiques","name:en":"Abdul Antiques","name:ms":"Syarikat Abdul","opening_hours":"Mo-Su 10:00-17:00","phone":"0166663476","shop":"furniture"},"geometry":{"type":"Point","coordinates":[102.2457348,2.1957651]},"id":"node/4634085489"},{"type":"Feature","properties":{"@id":"node/4634133190","amenity":"restaurant","name":"Sushi Mentai","name:en":"Sushi Mentai"},"geometry":{"type":"Point","coordinates":[103.7679979,1.4859873]},"id":"node/4634133190"},{"type":"Feature","properties":{"@id":"node/4634133191","amenity":"school","name":"Pusat Tuisyen Redang Bestari","name:en":"Pusat Tuisyen Redang Bestari"},"geometry":{"type":"Point","coordinates":[103.7763103,1.4782093]},"id":"node/4634133191"},{"type":"Feature","properties":{"@id":"node/4634183189","amenity":"restaurant","name":"Pandan Steamboat 青叶","name:zh":"青叶"},"geometry":{"type":"Point","coordinates":[103.7815102,1.5300993]},"id":"node/4634183189"},{"type":"Feature","properties":{"@id":"node/4634874657","shop":"paint"},"geometry":{"type":"Point","coordinates":[100.5094627,5.6703164]},"id":"node/4634874657"},{"type":"Feature","properties":{"@id":"node/4634874658","name":"Mia Azrieyna Radzee","shop":"clothes"},"geometry":{"type":"Point","coordinates":[100.5093541,5.6703738]},"id":"node/4634874658"},{"type":"Feature","properties":{"@id":"node/4634874666","name":"TCE Tackles Sdn Bhd","shop":"fishing"},"geometry":{"type":"Point","coordinates":[100.5087606,5.671358]},"id":"node/4634874666"},{"type":"Feature","properties":{"@id":"node/4634874673","shop":"laundry"},"geometry":{"type":"Point","coordinates":[100.5089341,5.6719497]},"id":"node/4634874673"},{"type":"Feature","properties":{"@id":"node/4634874677","amenity":"bank","atm":"yes","brand":"Bank Simpanan Nasional","brand:wikidata":"Q4855972","name":"Bank Simpanan Nasional","operator":"Bank Simpanan Nasional","short_name":"BSN"},"geometry":{"type":"Point","coordinates":[100.5090258,5.671978]},"id":"node/4634874677"},{"type":"Feature","properties":{"@id":"node/4634874678","shop":"electronics"},"geometry":{"type":"Point","coordinates":[100.5080365,5.6733933]},"id":"node/4634874678"},{"type":"Feature","properties":{"@id":"node/4634874679","brand":"Courts","brand:wikidata":"Q5178707","name":"Courts","shop":"furniture"},"geometry":{"type":"Point","coordinates":[100.5081975,5.6729689]},"id":"node/4634874679"},{"type":"Feature","properties":{"@id":"node/4634874680","amenity":"fast_food","cuisine":"malaysian","name":"Spring Leaf"},"geometry":{"type":"Point","coordinates":[100.508005,5.6735075]},"id":"node/4634874680"},