{"type":"FeatureCollection","features":[{"type":"Feature","properties":{"@id":"node/12629550742","addr:floor":"2","air_conditioning":"yes","amenity":"restaurant","check_date":"2025-03-02","cuisine":"international","name":"Rimba Resto","outdoor_seating":"no","payment:cash":"yes","payment:credit_cards":"yes","payment:debit_cards":"yes","toilets":"no","toilets:wheelchair":"no","wheelchair":"yes"},"geometry":{"type":"Point","coordinates":[101.7951065,3.4252951]},"id":"node/12629550742"},{"type":"Feature","properties":{"@id":"node/12629658837","bus":"yes","highway":"bus_stop","name":"Kampung Seri Serendah","public_transport":"platform","ref":"HS345","shelter":"no"},"geometry":{"type":"Point","coordinates":[101.6116597,3.3722641]},"id":"node/12629658837"},{"type":"Feature","properties":{"@id":"node/12629658840","bench":"yes","bus":"yes","departures_board":"no","highway":"bus_stop","name":"Dewan Komuniti Serendah","old_name":"Sekolah Jenis Kebangsaan (Cina) Serendah","operator":"MARA Liner","passenger_information_display":"yes","public_transport":"platform","ref":"HS348","shelter":"yes","tactile_paving":"no"},"geometry":{"type":"Point","coordinates":[101.603904,3.3650871]},"id":"node/12629658840"},{"type":"Feature","properties":{"@id":"node/12629658841","bench":"yes","bus":"yes","departures_board":"no","highway":"bus_stop","name":"Dewan Komuniti Serendah","old_name":"Sekolah Jenis Kebangsaan (Cina) Serendah","operator":"MARA Liner","passenger_information_display":"yes","public_transport":"platform","ref":"HS88","shelter":"yes","tactile_paving":"no"},"geometry":{"type":"Point","coordinates":[101.6036536,3.3651611]},"id":"node/12629658841"},{"type":"Feature","properties":{"@id":"node/12629658842","amenity":"place_of_worship","religion":"muslim"},"geometry":{"type":"Point","coordinates":[101.6037285,3.364473]},"id":"node/12629658842"},{"type":"Feature","properties":{"@id":"node/12629658843","bus":"yes","highway":"bus_stop","name":"BH Petrol / Klinik Kesihatan Serendah","network":"Smart Selangor Bus","operator":"MARA Liner","public_transport":"platform","shelter":"no"},"geometry":{"type":"Point","coordinates":[101.6020539,3.3626895]},"id":"node/12629658843"},{"type":"Feature","properties":{"@id":"node/12629658844","bus":"yes","highway":"bus_stop","name":"BH Petrol / Klinik Kesihatan Serendah (Opp)","network":"Smart Selangor Bus","operator":"MARA Liner","public_transport":"platform","shelter":"no"},"geometry":{"type":"Point","coordinates":[101.6021931,3.3625123]},"id":"node/12629658844"},{"type":"Feature","properties":{"@id":"node/12629658850","name":"Taman Seri Serendah","place":"neighbourhood"},"geometry":{"type":"Point","coordinates":[101.6149628,3.3710708]},"id":"node/12629658850"},{"type":"Feature","properties":{"@id":"node/12629762765","bus":"yes","highway":"bus_stop","name":"Seksyen BS5 Ros","network":"Smart Selangor Bus","operator":"MARA Liner","public_transport":"platform","shelter":"no"},"geometry":{"type":"Point","coordinates":[101.5710269,3.3762595]},"id":"node/12629762765"},{"type":"Feature","properties":{"@id":"node/12629801748","bus":"yes","highway":"bus_stop","network":"Smart Selangor Bus","operator":"MARA Liner","public_transport":"platform"},"geometry":{"type":"Point","coordinates":[101.5657673,3.3976785]},"id":"node/12629801748"},{"type":"Feature","properties":{"@id":"node/12629845931","amenity":"restaurant","cuisine":"seafood"},"geometry":{"type":"Point","coordinates":[102.002068,2.7119546]},"id":"node/12629845931"},{"type":"Feature","properties":{"@id":"node/12630021603","bus":"yes","public_transport":"stop_position"},"geometry":{"type":"Point","coordinates":[101.5919188,3.0534533]},"id":"node/12630021603"},{"type":"Feature","properties":{"@id":"node/12630021606","bus":"yes","public_transport":"stop_position"},"geometry":{"type":"Point","coordinates":[101.5865087,3.0844442]},"id":"node/12630021606"},{"type":"Feature","properties":{"@id":"node/12630266016","brand":"99 Speedmart","brand:wikidata":"Q62075061","name":"99 Speedmart","shop":"supermarket"},"geometry":{"type":"Point","coordinates":[101.5912967,3.0530941]},"id":"node/12630266016"},{"type":"Feature","properties":{"@id":"node/12630266023","amenity":"restaurant","brand":"Pizza Hut","brand:wikidata":"Q191615","cuisine":"pizza","name":"Pizza Hut"},"geometry":{"type":"Point","coordinates":[101.5936428,3.0582485]},"id":"node/12630266023"},{"type":"Feature","properties":{"@id":"node/12630266024","alt_name":"Kentucky Fried Chicken","amenity":"fast_food","brand":"KFC","brand:wikidata":"Q524757","cuisine":"chicken","name":"KFC","takeaway":"yes"},"geometry":{"type":"Point","coordinates":[101.5938196,3.0583282]},"id":"node/12630266024"},{"type":"Feature","properties":{"@id":"node/12630266025","brand":"7-Eleven","brand:wikidata":"Q259340","name":"7-Eleven","shop":"convenience"},"geometry":{"type":"Point","coordinates":[101.59452,3.0618575]},"id":"node/12630266025"},{"type":"Feature","properties":{"@id":"node/12630266033","name":"MeMiZoooZooo","shop":"supermarket"},"geometry":{"type":"Point","coordinates":[101.5956993,3.0618911]},"id":"node/12630266033"},{"type":"Feature","properties":{"@id":"node/12630448439","brand":"BYD","brand:wikidata":"Q27423","name":"BYD","opening_hours":"Mo-Su 08:30-17:30","operator":"Millennium Motors","phone":"+60128228374","shop":"car","website":"https://millenniumautobyd.com.my/"},"geometry":{"type":"Point","coordinates":[101.6094254,3.1329132]},"id":"node/12630448439"},{"type":"Feature","properties":{"@id":"node/12630522559","amenity":"compressed_air","covered":"no","fee":"no"},"geometry":{"type":"Point","coordinates":[101.6112341,3.1328882]},"id":"node/12630522559"},{"type":"Feature","properties":{"@id":"node/12630664056","amenity":"cafe","brand":"Bingxue","cuisine":"ice_cream;bubble_tea","name":"Bingxue","name:en":"Bingxue","name:zh":"冰雪时光","takeaway":"yes"},"geometry":{"type":"Point","coordinates":[101.6030725,3.0666882]},"id":"node/12630664056"},{"type":"Feature","properties":{"@id":"node/12630664061","brand":"Muji","brand:en":"Muji","brand:ja":"無印良品","brand:wikidata":"Q708789","name":"Muji","name:en":"Muji","name:ja":"無印良品","shop":"department_store"},"geometry":{"type":"Point","coordinates":[101.6053179,3.0722589]},"id":"node/12630664061"},{"type":"Feature","properties":{"@id":"node/12630664063","amenity":"cafe","brand":"ZUS Coffee","brand:wikidata":"Q110811473","cuisine":"coffee_shop","name":"ZUS Signature","takeaway":"yes"},"geometry":{"type":"Point","coordinates":[101.6053255,3.0724849]},"id":"node/12630664063"},{"type":"Feature","properties":{"@id":"node/12630664066","level":"-2","name":"Jaya Grocer","shop":"supermarket"},"geometry":{"type":"Point","coordinates":[101.6055236,3.0723903]},"id":"node/12630664066"},{"type":"Feature","properties":{"@id":"node/12630664067","brand":"KK Super Mart","brand:wikidata":"Q95721993","name":"KK Super Mart","shop":"convenience","short_name":"KK"},"geometry":{"type":"Point","coordinates":[101.6105118,3.0751201]},"id":"node/12630664067"},{"type":"Feature","properties":{"@id":"node/12630664068","brand":"eco-shop","brand:wikidata":"Q95721269","name":"eco-shop","shop":"variety_store"},"geometry":{"type":"Point","coordinates":[101.6109801,3.0758375]},"id":"node/12630664068"},{"type":"Feature","properties":{"@id":"node/12630664069","amenity":"cafe","brand":"Mixue","brand:en":"MIXUEBINGCHENG","brand:wikidata":"Q107406476","brand:zh":"蜜雪冰城","cuisine":"ice_cream;bubble_tea","name":"Mixue","name:en":"Mixue","name:zh":"蜜雪冰城","takeaway":"yes"},"geometry":{"type":"Point","coordinates":[101.6111267,3.0758461]},"id":"node/12630664069"},{"type":"Feature","properties":{"@id":"node/12630664074","brand":"KK Super Mart","brand:wikidata":"Q95721993","name":"KK Super Mart","shop":"convenience","short_name":"KK"},"geometry":{"type":"Point","coordinates":[101.6106197,3.0790318]},"id":"node/12630664074"},{"type":"Feature","properties":{"@id":"node/12630668802","bus":"yes","highway":"bus_stop","name":"Menara MBSJ","old_name":"Majlis Perbandaran Subang Jaya (MPSJ)","operator":"Rapid Bus","public_transport":"platform","shelter":"no"},"geometry":{"type":"Point","coordinates":[101.5834683,3.0519168]},"id":"node/12630668802"},{"type":"Feature","properties":{"@id":"node/12630668803","amenity":"fast_food","brand":"Burger King","brand:wikidata":"Q177054","cuisine":"burger","name":"Burger King","takeaway":"yes"},"geometry":{"type":"Point","coordinates":[101.5831605,3.0486917]},"id":"node/12630668803"},{"type":"Feature","properties":{"@id":"node/12630668806","bus":"yes","highway":"bus_stop","name":"First Subang","network":"Rapid KL Bus;Smart Selangor Bus","operator":"Rapid Bus","public_transport":"platform","ref":"SJ698","route_ref":"771;SJ01","shelter":"no"},"geometry":{"type":"Point","coordinates":[101.5850847,3.0793827]},"id":"node/12630668806"},{"type":"Feature","properties":{"@id":"node/12630668807","bench":"no","bin":"no","bus":"yes","highway":"bus_stop","lit":"no","name":"First Subang","network":"Rapid KL Bus;Smart Selangor Bus","operator":"Rapid Bus","public_transport":"platform","ref":"SJ701","route_ref":"771;SJ01","shelter":"no"},"geometry":{"type":"Point","coordinates":[101.5857345,3.0788663]},"id":"node/12630668807"},{"type":"Feature","properties":{"@id":"node/12630668808","bus":"yes","highway":"bus_stop","name":"Saujana Residency","network":"Smart Selangor Bus","operator":"Rapid Bus","public_transport":"platform","ref":"SJ61","route_ref":"SJ01","shelter":"no"},"geometry":{"type":"Point","coordinates":[101.5852152,3.0827259]},"id":"node/12630668808"},{"type":"Feature","properties":{"@id":"node/12630668809","bench":"yes","bus":"yes","highway":"bus_stop","name":"Subang Avenue","public_transport":"platform","ref":"SJ62","shelter":"yes"},"geometry":{"type":"Point","coordinates":[101.5888036,3.0832419]},"id":"node/12630668809"},{"type":"Feature","properties":{"@id":"node/12630711075","amenity":"cafe","cuisine":"coffee_shop","name":"Koppiku"},"geometry":{"type":"Point","coordinates":[101.6656301,3.1516325]},"id":"node/12630711075"},{"type":"Feature","properties":{"@id":"node/12630769294","air_conditioning":"yes","amenity":"restaurant","cuisine":"burger;chicken","name":"AllAce","name:en":"AllAce","name:ms":"AllAce","name:zh":"华莱士","name:zh-Hans":"华莱士","name:zh-Hant":"華萊士","wheelchair":"yes"},"geometry":{"type":"Point","coordinates":[101.7330341,3.2052491]},"id":"node/12630769294"},{"type":"Feature","properties":{"@id":"node/12631803453","addr:floor":"1","amenity":"bureau_de_change","check_date":"2025-03-03","email":"bts@suriamuhabat.com.my","name":"SM Money Exchange","name:en":"SM Money Exchange","opening_hours":"10:00-20:30","phone":"+03238906700; +0168435302"},"geometry":{"type":"Point","coordinates":[101.7108382,3.1426562]},"id":"node/12631803453"},{"type":"Feature","properties":{"@id":"node/12632002487","name":"Kampung Baru","place":"hamlet"},"geometry":{"type":"Point","coordinates":[100.4672591,5.4420297]},"id":"node/12632002487"},{"type":"Feature","properties":{"@id":"node/12632017356","name":"Kampung Huma","place":"isolated_dwelling"},"geometry":{"type":"Point","coordinates":[100.4725915,5.4378158]},"id":"node/12632017356"},{"type":"Feature","properties":{"@id":"node/12632017361","amenity":"place_of_worship","religion":"muslim"},"geometry":{"type":"Point","coordinates":[100.4597796,5.4313697]},"id":"node/12632017361"},{"type":"Feature","properties":{"@id":"node/12632051650","bench":"yes","bus":"yes","highway":"bus_stop","public_transport":"platform","shelter":"yes","tactile_paving":"yes"},"geometry":{"type":"Point","coordinates":[100.4960181,5.5208199]},"id":"node/12632051650"},{"type":"Feature","properties":{"@id":"node/12632080155","bench":"yes","bus":"yes","highway":"bus_stop","public_transport":"platform","shelter":"yes"},"geometry":{"type":"Point","coordinates":[100.4775697,5.5199847]},"id":"node/12632080155"},{"type":"Feature","properties":{"@id":"node/12632081154","amenity":"atm","name":"CIMB Bank"},"geometry":{"type":"Point","coordinates":[101.6979086,3.1456408]},"id":"node/12632081154"},{"type":"Feature","properties":{"@id":"node/12632101962","bench":"yes","bus":"yes","highway":"bus_stop","public_transport":"platform","shelter":"yes","tactile_paving":"yes"},"geometry":{"type":"Point","coordinates":[100.4816165,5.5203507]},"id":"node/12632101962"},{"type":"Feature","properties":{"@id":"node/12632559796","addr:city":"Miri","addr:housenumber":"3368-3369","addr:postcode":"98000","addr:street":"Jalan Acca","brand":"99 Speedmart","brand:wikidata":"Q62075061","name":"99 Speedmart","shop":"variety_store"},"geometry":{"type":"Point","coordinates":[113.9728439,4.3538371]},"id":"node/12632559796"},{"type":"Feature","properties":{"@id":"node/12632593587","addr:city":"Miri","addr:housenumber":"41-43/1646-1647","addr:postcode":"98000","addr:street":"Jalan Raja","brand":"99 Speedmart","brand:wikidata":"Q62075061","name":"99 Speedmart","shop":"variety_store"},"geometry":{"type":"Point","coordinates":[113.9875788,4.393202]},"id":"node/12632593587"},{"type":"Feature","properties":{"@id":"node/12632601602","addr:city":"Miri","addr:housenumber":"2218-2219","addr:postcode":"98000","addr:street":"Jalan Saberkas Utama","brand":"99 Speedmart","brand:wikidata":"Q62075061","name":"99 Speedmart","shop":"variety_store"},"geometry":{"type":"Point","coordinates":[114.0171733,4.4200623]},"id":"node/12632601602"},{"type":"Feature","properties":{"@id":"node/12632610355","addr:city":"Miri","addr:housenumber":"6128-6129","addr:place":"Bandar Baru Permyjaya","addr:postcode":"98000","air_conditioning":"yes","amenity":"restaurant","branch":"Permyjaya","contact:facebook":"https://www.facebook.com/angroastedeatery/","cuisine":"chinese","diet:non-halal":"yes","name":"Ang's Roasted Eatery"},"geometry":{"type":"Point","coordinates":[114.0349996,4.4495549]},"id":"node/12632610355"},{"type":"Feature","properties":{"@id":"node/12632824663","amenity":"fast_food","name":"Nutty Apam Balik"},"geometry":{"type":"Point","coordinates":[101.6964381,3.1444703]},"id":"node/12632824663"},{"type":"Feature","properties":{"@id":"node/12632824664","addr:street":"Jalan Tun H.S. Lee","name":"Weng Hoa Flower Boutique","shop":"florist"},"geometry":{"type":"Point","coordinates":[101.6965486,3.1445096]},"id":"node/12632824664"},{"type":"Feature","properties":{"@id":"node/12633117601","name":"Guesthouse","tourism":"hostel"},"geometry":{"type":"Point","coordinates":[102.7172388,5.9125433]},"id":"node/12633117601"},{"type":"Feature","properties":{"@id":"node/12633123873","name":"KK Supermart","shop":"supermarket"},"geometry":{"type":"Point","coordinates":[102.2440941,2.1941454]},"id":"node/12633123873"},{"type":"Feature","properties":{"@id":"node/12633158584","historic":"ruins","name":"The Jetty (Ruins)","name:en":"The Jetty (Ruins)","tourism":"attraction"},"geometry":{"type":"Point","coordinates":[102.2476631,2.1862442]},"id":"node/12633158584"},{"type":"Feature","properties":{"@id":"node/12633160398","name":"99 speedmart","shop":"supermarket"},"geometry":{"type":"Point","coordinates":[102.243777,2.1944223]},"id":"node/12633160398"},{"type":"Feature","properties":{"@id":"node/12633345507","amenity":"cafe","brand":"ZUS Coffee","brand:wikidata":"Q110811473","cuisine":"coffee_shop","name":"ZUS Coffee","takeaway":"yes"},"geometry":{"type":"Point","coordinates":[100.4631935,5.4082553]},"id":"node/12633345507"},{"type":"Feature","properties":{"@id":"node/12633345508","brand":"MR.DIY","brand:wikidata":"Q105044323","name":"MR.DIY","shop":"doityourself"},"geometry":{"type":"Point","coordinates":[100.4632085,5.4081656]},"id":"node/12633345508"},{"type":"Feature","properties":{"@id":"node/12633438601","name":"Outlet","shop":"clothes"},"geometry":{"type":"Point","coordinates":[101.7126333,3.1474]},"id":"node/12633438601"},{"type":"Feature","properties":{"@id":"node/12633499162","name":"Ola Hostel","phone":"+60 126126665","tourism":"hostel"},"geometry":{"type":"Point","coordinates":[102.2482942,2.1958174]},"id":"node/12633499162"},{"type":"Feature","properties":{"@id":"node/12633523224","bench":"yes","bus":"yes","highway":"bus_stop","name":"SMK Tengku Ampuan Rahimah","operator":"Wawasan Sutera","public_transport":"platform","ref":"BD59","route_ref":"730","shelter":"yes"},"geometry":{"type":"Point","coordinates":[101.4420842,3.0306489]},"id":"node/12633523224"},{"type":"Feature","properties":{"@id":"node/12633523225","bench":"yes","bus":"yes","highway":"bus_stop","name":"SMK Tengku Ampuan Rahimah","operator":"Wawasan Sutera","public_transport":"platform","ref":"BD111","route_ref":"730","shelter":"yes"},"geometry":{"type":"Point","coordinates":[101.4417555,3.0302188]},"id":"node/12633523225"},{"type":"Feature","properties":{"@id":"node/12633523244","bench":"yes","bus":"yes","highway":"bus_stop","name":"Kolej Komuniti Klang","operator":"Wawasan Sutera","public_transport":"platform","ref":"BD110","route_ref":"730","shelter":"yes","tactile_paving":"yes"},"geometry":{"type":"Point","coordinates":[101.442115,3.0273241]},"id":"node/12633523244"},{"type":"Feature","properties":{"@id":"node/12633523248","bench":"yes","bin":"yes","bus":"yes","highway":"bus_stop","name":"Hospital Tengku Ampuan Rahimah","operator":"Wawasan Sutera","public_transport":"platform","ref":"BD109","route_ref":"730","shelter":"yes"},"geometry":{"type":"Point","coordinates":[101.4422641,3.0208571]},"id":"node/12633523248"},{"type":"Feature","properties":{"@id":"node/12633523253","bench":"yes","bus":"yes","highway":"bus_stop","name":"Taman Sri Andalas (Barat Daya)","operator":"Wawasan Sutera","public_transport":"platform","ref":"BD62","route_ref":"730","shelter":"yes"},"geometry":{"type":"Point","coordinates":[101.4407452,3.0154153]},"id":"node/12633523253"},{"type":"Feature","properties":{"@id":"node/12633523258","bench":"no","bus":"yes","highway":"bus_stop","name":"Taman Sri Andalas (Barat Daya)","operator":"Wawasan Sutera","public_transport":"platform","ref":"BD108","route_ref":"730","shelter":"no"},"geometry":{"type":"Point","coordinates":[101.4403309,3.0153884]},"id":"node/12633523258"},{"type":"Feature","properties":{"@id":"node/12633523259","bench":"yes","bus":"yes","highway":"bus_stop","name":"Bandar Bukit Tinggi One Boulevard","operator":"Wawasan Sutera","public_transport":"platform","ref":"BD107","route_ref":"730","shelter":"yes"},"geometry":{"type":"Point","coordinates":[101.4401989,3.0095437]},"id":"node/12633523259"},{"type":"Feature","properties":{"@id":"node/12633523263","brand":"myNEWS.com","brand:wikidata":"Q17147574","name":"myNEWS.com","shop":"convenience"},"geometry":{"type":"Point","coordinates":[101.4413706,3.0070772]},"id":"node/12633523263"},{"type":"Feature","properties":{"@id":"node/12633523270","bus":"yes","highway":"bus_stop","name":"Botanic Avenue 1","operator":"Wawasan Sutera","public_transport":"platform","ref":"BD87","route_ref":"730","shelter":"no"},"geometry":{"type":"Point","coordinates":[101.444062,2.99877]},"id":"node/12633523270"},{"type":"Feature","properties":{"@id":"node/12633523271","bus":"yes","highway":"bus_stop","name":"Botanic Avenue 1","operator":"Wawasan Sutera","public_transport":"platform","ref":"BD104","route_ref":"730","shelter":"no"},"geometry":{"type":"Point","coordinates":[101.443862,2.998364]},"id":"node/12633523271"},{"type":"Feature","properties":{"@id":"node/12633523277","bus":"yes","highway":"bus_stop","name":"Kampung Johan Setia (Barat)","operator":"Wawasan Sutera","public_transport":"platform","ref":"BD101","route_ref":"730","shelter":"no"},"geometry":{"type":"Point","coordinates":[101.4548708,2.981486]},"id":"node/12633523277"},{"type":"Feature","properties":{"@id":"node/12633523279","name":"Bayuemas","place":"quarter"},"geometry":{"type":"Point","coordinates":[101.4509802,2.9775483]},"id":"node/12633523279"},{"type":"Feature","properties":{"@id":"node/12633523285","bus":"yes","highway":"bus_stop","name":"Kota Bayu Emas (Timur)","operator":"Wawasan Sutera","public_transport":"platform","ref":"BD90","route_ref":"730","shelter":"no"},"geometry":{"type":"Point","coordinates":[101.4586352,2.9770743]},"id":"node/12633523285"},{"type":"Feature","properties":{"@id":"node/12633523286","bus":"yes","highway":"bus_stop","name":"Kota Bayu Emas (Timur)","operator":"Wawasan Sutera","public_transport":"platform","ref":"BD93","route_ref":"730","shelter":"no"},"geometry":{"type":"Point","coordinates":[101.4580654,2.977334]},"id":"node/12633523286"},{"type":"Feature","properties":{"@id":"node/12633523291","bench":"yes","bus":"yes","highway":"bus_stop","name":"LRT Johan Setia","operator":"Rapid Bus","public_transport":"platform","route_ref":"730","shelter":"yes","tactile_paving":"yes"},"geometry":{"type":"Point","coordinates":[101.4592132,2.9757978]},"id":"node/12633523291"},{"type":"Feature","properties":{"@id":"node/12633571980","artwork_type":"statue","tourism":"artwork"},"geometry":{"type":"Point","coordinates":[101.4919247,2.8698552]},"id":"node/12633571980"},{"type":"Feature","properties":{"@id":"node/12633571986","name":"Taman Yayasan","place":"neighbourhood"},"geometry":{"type":"Point","coordinates":[101.4937043,2.8671686]},"id":"node/12633571986"},{"type":"Feature","properties":{"@id":"node/12633571987","brand":"Pasar Ekonomi Econsave","brand:en":"Econsave Express","brand:ml":"Pasar Ekonomi Econsave","brand:wikidata":"Q61776608","brand:zh":"宜康省经济市场","name":"Pasar Ekonomi Econsave","name:en":"Econsave Express","name:ml":"Pasar Ekonomi Econsave","name:zh":"宜康省经济市场","shop":"variety_store"},"geometry":{"type":"Point","coordinates":[101.49439,2.8718368]},"id":"node/12633571987"},{"type":"Feature","properties":{"@id":"node/12633571988","name":"Taman Seri Jarum","place":"neighbourhood"},"geometry":{"type":"Point","coordinates":[101.4939964,2.8728027]},"id":"node/12633571988"},{"type":"Feature","properties":{"@id":"node/12633571990","name":"Taman Melati","place":"neighbourhood"},"geometry":{"type":"Point","coordinates":[101.4928697,2.8715172]},"id":"node/12633571990"},{"type":"Feature","properties":{"@id":"node/12633592302","amenity":"restaurant","cuisine":"mamak","name":"Habiba Maju"},"geometry":{"type":"Point","coordinates":[101.502154,2.8750201]},"id":"node/12633592302"},{"type":"Feature","properties":{"@id":"node/12633592309","bench":"yes","bus":"yes","highway":"bus_stop","name":"Taman Ria / Bandar Sri Jaromas","operator":"Wawasan Sutera","public_transport":"platform","ref":"LG203","route_ref":"730","shelter":"yes"},"geometry":{"type":"Point","coordinates":[101.4999419,2.8755408]},"id":"node/12633592309"},{"type":"Feature","properties":{"@id":"node/12633592310","bench":"yes","bus":"yes","highway":"bus_stop","name":"Taman Ria / Bandar Sri Jaromas","operator":"Wawasan Sutera","public_transport":"platform","ref":"LG162","route_ref":"730","shelter":"yes"},"geometry":{"type":"Point","coordinates":[101.499672,2.8753297]},"id":"node/12633592310"},{"type":"Feature","properties":{"@id":"node/12633592311","bus":"yes","highway":"bus_stop","name":"Taman Sejahtera Jenjarom","operator":"Wawasan Sutera","public_transport":"platform","ref":"LG202","route_ref":"730","shelter":"no"},"geometry":{"type":"Point","coordinates":[101.4973304,2.8786534]},"id":"node/12633592311"},{"type":"Feature","properties":{"@id":"node/12633788729","bus":"yes","highway":"bus_stop","name":"Taman Desa Jenjarom","operator":"Wawasan Sutera","public_transport":"platform","ref":"LG201","route_ref":"730","shelter":"no"},"geometry":{"type":"Point","coordinates":[101.4965054,2.879603]},"id":"node/12633788729"},{"type":"Feature","properties":{"@id":"node/12633788730","bench":"yes","bus":"yes","highway":"bus_stop","name":"Masjid Al-Firdaus","operator":"Wawasan Sutera","public_transport":"platform","ref":"LG200","route_ref":"730","shelter":"yes"},"geometry":{"type":"Point","coordinates":[101.4915506,2.8854463]},"id":"node/12633788730"},{"type":"Feature","properties":{"@id":"node/12633788735","bus":"yes","highway":"bus_stop","name":"Kampung Sungai Rambai (Timur)","operator":"Wawasan Sutera","public_transport":"platform","ref":"LG198","route_ref":"730","shelter":"no"},"geometry":{"type":"Point","coordinates":[101.4879274,2.8893597]},"id":"node/12633788735"},{"type":"Feature","properties":{"@id":"node/12633788736","bus":"yes","highway":"bus_stop","name":"Kampung Sungai Rambai (Timur)","operator":"Wawasan Sutera","public_transport":"platform","ref":"LG199","route_ref":"730","shelter":"no"},"geometry":{"type":"Point","coordinates":[101.4873244,2.8897326]},"id":"node/12633788736"},{"type":"Feature","properties":{"@id":"node/12633788744","bus":"yes","highway":"bus_stop","name":"Bulatan Telok Panglima Garang","operator":"Wawasan Sutera","public_transport":"platform","ref":"LG195","route_ref":"730","shelter":"no"},"geometry":{"type":"Point","coordinates":[101.4661042,2.8991164]},"id":"node/12633788744"},{"type":"Feature","properties":{"@id":"node/12633788751","bus":"yes","highway":"bus_stop","name":"Bulatan Telok Panglima Garang","operator":"Wawasan Sutera","public_transport":"platform","ref":"LG194","route_ref":"730","shelter":"no"},"geometry":{"type":"Point","coordinates":[101.4658632,2.898203]},"id":"node/12633788751"},{"type":"Feature","properties":{"@id":"node/12633788752","alt_name":"Kentucky Fried Chicken","amenity":"fast_food","brand":"KFC","brand:wikidata":"Q524757","cuisine":"chicken","name":"KFC","takeaway":"yes"},"geometry":{"type":"Point","coordinates":[101.4689762,2.8953329]},"id":"node/12633788752"},{"type":"Feature","properties":{"@id":"node/12633788753","amenity":"restaurant","brand":"Pizza Hut","brand:wikidata":"Q191615","cuisine":"pizza","name":"Pizza Hut"},"geometry":{"type":"Point","coordinates":[101.4690135,2.8952397]},"id":"node/12633788753"},{"type":"Feature","properties":{"@id":"node/12633788754","alt_name":"Church's Chicken","amenity":"fast_food","brand":"Texas Chicken","brand:wikidata":"Q1089932","cuisine":"chicken","name":"Texas Chicken","takeaway":"yes"},"geometry":{"type":"Point","coordinates":[101.4665926,2.8956538]},"id":"node/12633788754"},{"type":"Feature","properties":{"@id":"node/12633788766","name":"Taman TelokBulatan Telok Panglima Garang","place":"neighbourhood"},"geometry":{"type":"Point","coordinates":[101.4682265,2.9033588]},"id":"node/12633788766"},{"type":"Feature","properties":{"@id":"node/12633788767","bench":"yes","bus":"yes","highway":"bus_stop","name":"Masjid Al-Hidayah Telok Panglima Garang","operator":"Wawasan Sutera","public_transport":"platform","ref":"LG193","route_ref":"730","shelter":"yes"},"geometry":{"type":"Point","coordinates":[101.4674879,2.9040316]},"id":"node/12633788767"},{"type":"Feature","properties":{"@id":"node/12633788771","bench":"yes","bus":"yes","highway":"bus_stop","name":"Masjid Al-Hidayah Telok Panglima Garang","operator":"Wawasan Sutera","public_transport":"platform","ref":"LG168","route_ref":"730","shelter":"yes"},"geometry":{"type":"Point","coordinates":[101.4671749,2.9045875]},"id":"node/12633788771"},{"type":"Feature","properties":{"@id":"node/12633788796","bench":"yes","bin":"yes","bus":"yes","highway":"bus_stop","name":"SJK (C) Peng Ming","operator":"Wawasan Sutera","public_transport":"platform","ref":"LG169","route_ref":"730","shelter":"yes","tactile_paving":"yes"},"geometry":{"type":"Point","coordinates":[101.466754,2.9082922]},"id":"node/12633788796"},{"type":"Feature","properties":{"@id":"node/12633808801","bench":"yes","bus":"yes","highway":"bus_stop","name":"SJK (C) Peng Ming","operator":"Wawasan Sutera","public_transport":"platform","ref":"LG192","route_ref":"730","shelter":"yes"},"geometry":{"type":"Point","coordinates":[101.4677178,2.9087206]},"id":"node/12633808801"},{"type":"Feature","properties":{"@id":"node/12633808802","name":"Taman Aman","place":"neighbourhood"},"geometry":{"type":"Point","coordinates":[101.4665197,2.9089869]},"id":"node/12633808802"},{"type":"Feature","properties":{"@id":"node/12633808803","name":"Taman Panglima","place":"neighbourhood"},"geometry":{"type":"Point","coordinates":[101.4691812,2.9087494]},"id":"node/12633808803"},{"type":"Feature","properties":{"@id":"node/12633808804","name":"Taman Indah Jaya","place":"neighbourhood"},"geometry":{"type":"Point","coordinates":[101.4679114,2.910411]},"id":"node/12633808804"},{"type":"Feature","properties":{"@id":"node/12633808806","brand":"7-Eleven","brand:wikidata":"Q259340","name":"7-Eleven","shop":"convenience"},"geometry":{"type":"Point","coordinates":[101.47007,2.9101087]},"id":"node/12633808806"},{"type":"Feature","properties":{"@id":"node/12633808807","brand":"KK Super Mart","brand:wikidata":"Q95721993","name":"KK Super Mart","shop":"convenience","short_name":"KK"},"geometry":{"type":"Point","coordinates":[101.4701251,2.9101581]},"id":"node/12633808807"},{"type":"Feature","properties":{"@id":"node/12633808808","bench":"yes","bus":"yes","highway":"bus_stop","name":"Taman Jaya Utama (Utara)","operator":"Wawasan Sutera","public_transport":"platform","ref":"LG171","route_ref":"730","shelter":"yes"},"geometry":{"type":"Point","coordinates":[101.4718434,2.9120153]},"id":"node/12633808808"},{"type":"Feature","properties":{"@id":"node/12633808809","bench":"yes","bus":"yes","highway":"bus_stop","name":"Taman Jaya Utama (Utara)","operator":"Wawasan Sutera","public_transport":"platform","ref":"LG190","route_ref":"730","shelter":"yes","tactile_paving":"yes"},"geometry":{"type":"Point","coordinates":[101.4720354,2.9117803]},"id":"node/12633808809"},{"type":"Feature","properties":{"@id":"node/12633808810","bench":"yes","bus":"yes","highway":"bus_stop","name":"Balai Polis Telok Panglima Garang","operator":"Wawasan Sutera","public_transport":"platform","ref":"LG172","route_ref":"730","shelter":"yes"},"geometry":{"type":"Point","coordinates":[101.4742268,2.914966]},"id":"node/12633808810"},{"type":"Feature","properties":{"@id":"node/12633808811","bench":"yes","bus":"yes","highway":"bus_stop","name":"Balai Polis Telok Panglima Garang","operator":"Wawasan Sutera","public_transport":"platform","ref":"LG189","route_ref":"730","shelter":"yes"},"geometry":{"type":"Point","coordinates":[101.4745443,2.9146489]},"id":"node/12633808811"},{"type":"Feature","properties":{"@id":"node/12633808812","brand":"eco-shop","brand:wikidata":"Q95721269","name":"eco-shop","shop":"variety_store"},"geometry":{"type":"Point","coordinates":[101.4743927,2.9131587]},"id":"node/12633808812"},{"type":"Feature","properties":{"@id":"node/12633808813","bench":"yes","bus":"yes","highway":"bus_stop","name":"Telok Panglima Garang (Timur)","operator":"Wawasan Sutera","public_transport":"platform","ref":"LG188","route_ref":"730","shelter":"yes"},"geometry":{"type":"Point","coordinates":[101.4743889,2.9171902]},"id":"node/12633808813"},{"type":"Feature","properties":{"@id":"node/12633808814","bench":"yes","bus":"yes","highway":"bus_stop","name":"Telok Panglima Garang (Timur)","operator":"Wawasan Sutera","public_transport":"platform","ref":"LG173","route_ref":"730","shelter":"yes","tactile_paving":"yes"},"geometry":{"type":"Point","coordinates":[101.4737128,2.9184962]},"id":"node/12633808814"},{"type":"Feature","properties":{"@id":"node/12633808815","bench":"yes","bin":"yes","bus":"yes","highway":"bus_stop","name":"Kampung Batu 9 Kebun Baru (Barat)","operator":"Wawasan Sutera","public_transport":"platform","ref":"LG187","route_ref":"730","shelter":"yes","tactile_paving":"yes"},"geometry":{"type":"Point","coordinates":[101.4736122,2.9210281]},"id":"node/12633808815"},{"type":"Feature","properties":{"@id":"node/12633808816","bus":"yes","highway":"bus_stop","name":"Kampung Batu 9 Kebun Baru (Barat)","operator":"Wawasan Sutera","public_transport":"platform","ref":"LG174","route_ref":"730","shelter":"no"},"geometry":{"type":"Point","coordinates":[101.4732128,2.9213995]},"id":"node/12633808816"},{"type":"Feature","properties":{"@id":"node/12633808817","bench":"yes","bus":"yes","highway":"bus_stop","operator":"Wawasan Sutera","public_transport":"platform","route_ref":"730","shelter":"yes"},"geometry":{"type":"Point","coordinates":[101.4729405,2.9244307]},"id":"node/12633808817"},{"type":"Feature","properties":{"@id":"node/12633808818","bench":"yes","bin":"yes","bus":"yes","highway":"bus_stop","name":"SRA Kampung Medan","operator":"Wawasan Sutera","public_transport":"platform","ref":"LG175","route_ref":"730","shelter":"yes"},"geometry":{"type":"Point","coordinates":[101.4731723,2.9281926]},"id":"node/12633808818"},{"type":"Feature","properties":{"@id":"node/12633808819","bench":"yes","bus":"yes","highway":"bus_stop","name":"SRA Kampung Medan","operator":"Wawasan Sutera","public_transport":"platform","ref":"LG186","route_ref":"730","shelter":"yes"},"geometry":{"type":"Point","coordinates":[101.473432,2.9278223]},"id":"node/12633808819"},{"type":"Feature","properties":{"@id":"node/12633808820","name":"Taman Medan Indah","place":"neighbourhood"},"geometry":{"type":"Point","coordinates":[101.4720171,2.926929]},"id":"node/12633808820"},{"type":"Feature","properties":{"@id":"node/12633808821","bench":"yes","bus":"yes","highway":"bus_stop","name":"SMK Sijangkang Jaya","operator":"Wawasan Sutera","public_transport":"platform","ref":"LG176","route_ref":"730","shelter":"yes"},"geometry":{"type":"Point","coordinates":[101.4727112,2.932784]},"id":"node/12633808821"},{"type":"Feature","properties":{"@id":"node/12633808822","bench":"yes","bus":"yes","highway":"bus_stop","name":"SMK Sijangkang Jaya","operator":"Wawasan Sutera","public_transport":"platform","ref":"LG185","route_ref":"730","shelter":"yes"},"geometry":{"type":"Point","coordinates":[101.4730055,2.9323216]},"id":"node/12633808822"},{"type":"Feature","properties":{"@id":"node/12633808823","bench":"yes","bus":"yes","highway":"bus_stop","name":"Taman Seri Medan Jaya","operator":"Wawasan Sutera","public_transport":"platform","ref":"LG184","route_ref":"730","shelter":"yes"},"geometry":{"type":"Point","coordinates":[101.4727283,2.9366404]},"id":"node/12633808823"},{"type":"Feature","properties":{"@id":"node/12633808824","bench":"yes","bus":"yes","highway":"bus_stop","name":"Taman Seri Medan Jaya","operator":"Wawasan Sutera","public_transport":"platform","ref":"LG177","route_ref":"730","shelter":"yes"},"geometry":{"type":"Point","coordinates":[101.4723765,2.9369604]},"id":"node/12633808824"},{"type":"Feature","properties":{"@id":"node/12633808825","bench":"yes","bus":"yes","highway":"bus_stop","name":"Taman Perwira","operator":"Wawasan Sutera","public_transport":"platform","ref":"LG178","route_ref":"730","shelter":"yes"},"geometry":{"type":"Point","coordinates":[101.4719242,2.9408453]},"id":"node/12633808825"},{"type":"Feature","properties":{"@id":"node/12633808826","bench":"yes","bus":"yes","highway":"bus_stop","name":"Taman Perwira","operator":"Wawasan Sutera","public_transport":"platform","ref":"LG183","route_ref":"730","shelter":"yes"},"geometry":{"type":"Point","coordinates":[101.4722147,2.9408089]},"id":"node/12633808826"},{"type":"Feature","properties":{"@id":"node/12633808827","brand":"99 Speedmart","brand:wikidata":"Q62075061","name":"99 Speedmart","shop":"supermarket"},"geometry":{"type":"Point","coordinates":[101.4731383,2.939204]},"id":"node/12633808827"},{"type":"Feature","properties":{"@id":"node/12633808828","name":"Taman Sijangkang Permai","place":"neighbourhood"},"geometry":{"type":"Point","coordinates":[101.4692889,2.9420597]},"id":"node/12633808828"},{"type":"Feature","properties":{"@id":"node/12633808829","bench":"yes","bus":"yes","highway":"bus_stop","name":"Taman Sijangkang Jaya","operator":"Wawasan Sutera","public_transport":"platform","ref":"LG182","route_ref":"730","shelter":"yes"},"geometry":{"type":"Point","coordinates":[101.471574,2.9452987]},"id":"node/12633808829"},{"type":"Feature","properties":{"@id":"node/12633808830","bench":"yes","bus":"yes","highway":"bus_stop","name":"Taman Sijangkang Jaya","operator":"Wawasan Sutera","public_transport":"platform","ref":"LG179","route_ref":"730","shelter":"yes"},"geometry":{"type":"Point","coordinates":[101.4712328,2.9456436]},"id":"node/12633808830"},{"type":"Feature","properties":{"@id":"node/12633808831","bench":"yes","bus":"yes","highway":"bus_stop","name":"Kampung Sijangkang","operator":"Wawasan Sutera","public_transport":"platform","ref":"LG180","route_ref":"730","shelter":"yes"},"geometry":{"type":"Point","coordinates":[101.4707804,2.948075]},"id":"node/12633808831"},{"type":"Feature","properties":{"@id":"node/12633808832","bench":"yes","bus":"yes","highway":"bus_stop","name":"Kampung Sijangkang","operator":"Wawasan Sutera","public_transport":"platform","ref":"LG181","route_ref":"730","shelter":"yes"},"geometry":{"type":"Point","coordinates":[101.471168,2.9477273]},"id":"node/12633808832"},{"type":"Feature","properties":{"@id":"node/12634031174","bus":"yes","public_transport":"stop_position"},"geometry":{"type":"Point","coordinates":[101.4504857,3.0188415]},"id":"node/12634031174"},{"type":"Feature","properties":{"@id":"node/12634031196","bench":"yes","bus":"yes","highway":"bus_stop","name":"Taman Rakyat","network":"Smart Selangor Bus","old_name":"Balai Bomba Dan Penyelamat Andalas","operator":"Rapid Bus","public_transport":"platform","ref":"BD553","route_ref":"KLG3A","shelter":"yes","tactile_paving":"yes"},"geometry":{"type":"Point","coordinates":[101.4502703,3.019181]},"id":"node/12634031196"},{"type":"Feature","properties":{"@id":"node/12634031197","bus":"yes","public_transport":"stop_position"},"geometry":{"type":"Point","coordinates":[101.45039,3.0191765]},"id":"node/12634031197"},{"type":"Feature","properties":{"@id":"node/12634031198","bench":"yes","bus":"yes","highway":"bus_stop","name":"Sri Damak 11","old_name":"Taman Rakyat","public_transport":"platform","ref":"BD551","shelter":"yes","tactile_paving":"yes"},"geometry":{"type":"Point","coordinates":[101.4506697,3.0212334]},"id":"node/12634031198"},{"type":"Feature","properties":{"@id":"node/12634031199","bench":"yes","bus":"yes","highway":"bus_stop","name":"Sri Tanjung 1","old_name":"Taman Andalas Permai","public_transport":"platform","ref":"BD550","shelter":"yes"},"geometry":{"type":"Point","coordinates":[101.4513357,3.0254118]},"id":"node/12634031199"},{"type":"Feature","properties":{"@id":"node/12634031200","bench":"yes","bus":"yes","highway":"bus_stop","name":"SMK Sri Andalas","network":"Smart Selangor Bus","old_name":"Balai Bomba Dan Penyelamat Andalas","operator":"Rapid Bus","public_transport":"platform","ref":"BD554","route_ref":"KLG3A","shelter":"yes"},"geometry":{"type":"Point","coordinates":[101.4505386,3.0188321]},"id":"node/12634031200"},{"type":"Feature","properties":{"@id":"node/12634086701","bench":"yes","bus":"yes","highway":"bus_stop","name":"Taman Sri Andalas","public_transport":"platform","ref":"BD535","shelter":"yes"},"geometry":{"type":"Point","coordinates":[101.4455333,3.016182]},"id":"node/12634086701"},{"type":"Feature","properties":{"@id":"node/12634086702","bench":"yes","bus":"yes","highway":"bus_stop","name":"SJK (T) Simpang Lima","public_transport":"platform","ref":"BD555","shelter":"yes"},"geometry":{"type":"Point","coordinates":[101.4454723,3.0159011]},"id":"node/12634086702"},{"type":"Feature","properties":{"@id":"node/12634086706","bench":"yes","bus":"yes","highway":"bus_stop","name":"Balai Polis Klang Selatan","public_transport":"platform","shelter":"yes"},"geometry":{"type":"Point","coordinates":[101.4466607,3.0428118]},"id":"node/12634086706"},{"type":"Feature","properties":{"@id":"node/12634819813","addr:housenumber":"33","addr:street":"Jalan Dang Wangi","amenity":"restaurant","check_date":"2025-03-04","cuisine":"chinese","level":"0"},"geometry":{"type":"Point","coordinates":[101.7001202,3.1562015]},"id":"node/12634819813"},{"type":"Feature","properties":{"@id":"node/12634860664","amenity":"cafe","name":"The Bean KLCC"},"geometry":{"type":"Point","coordinates":[101.707271,3.1546099]},"id":"node/12634860664"},{"type":"Feature","properties":{"@id":"node/12634920448","bus":"yes","public_transport":"stop_position"},"geometry":{"type":"Point","coordinates":[101.4504037,3.0426451]},"id":"node/12634920448"},{"type":"Feature","properties":{"@id":"node/12634920453","bench":"yes","bin":"yes","bus":"yes","highway":"bus_stop","name":"Istana Alam Shah","network":"Smart Selangor Bus","operator":"Rapid Bus","public_transport":"platform","ref":"BD49","route_ref":"KLG3A;KLG3B;KLG3C","shelter":"yes","tactile_paving":"yes"},"geometry":{"type":"Point","coordinates":[101.4514923,3.0375619]},"id":"node/12634920453"},{"type":"Feature","properties":{"@id":"node/12634920458","bus":"yes","highway":"bus_stop","name":"SM Chung Hua","network":"Smart Selangor Bus","old_name":"Istana Alam Shah","operator":"Rapid Bus","public_transport":"platform","ref":"BD30","route_ref":"KLG3A;KLG3B;KLG3C","shelter":"no"},"geometry":{"type":"Point","coordinates":[101.4515759,3.0371124]},"id":"node/12634920458"},{"type":"Feature","properties":{"@id":"node/12634920459","bench":"yes","bin":"yes","bus":"yes","highway":"bus_stop","name":"Dewan Melayu Klang","network":"Smart Selangor Bus","old_name":"Kompleks Sukan Padang Sultan Suleiman","operator":"Rapid Bus","public_transport":"platform","ref":"BD50","route_ref":"KLG3A;KLG3B;KLG3C","shelter":"yes","tactile_paving":"yes"},"geometry":{"type":"Point","coordinates":[101.4517248,3.0390059]},"id":"node/12634920459"},{"type":"Feature","properties":{"@id":"node/12634920460","bus":"yes","highway":"bus_stop","name":"SM Chung Hua","network":"Smart Selangor Bus","old_name":"Kompleks Sukan Padang Sultan Suleiman","operator":"Rapid Bus","public_transport":"platform","ref":"BD29","route_ref":"KLG3A;KLG3B;KLG3C","shelter":"no"},"geometry":{"type":"Point","coordinates":[101.451846,3.0387815]},"id":"node/12634920460"},{"type":"Feature","properties":{"@id":"node/12634920469","bus":"yes","highway":"bus_stop","name":"Taman Shahbandaraya","network":"Smart Selangor Bus","operator":"Rapid Bus","public_transport":"platform","ref":"BD46","route_ref":"KLG3A;KLG3B;KLG3C","shelter":"no"},"geometry":{"type":"Point","coordinates":[101.4574697,3.0301145]},"id":"node/12634920469"},{"type":"Feature","properties":{"@id":"node/12634920470","bus":"yes","highway":"bus_stop","name":"Taman Shahbandaraya","network":"Smart Selangor Bus","operator":"Rapid Bus","public_transport":"platform","ref":"BD33","route_ref":"KLG3A;KLG3B;KLG3C","shelter":"no"},"geometry":{"type":"Point","coordinates":[101.4577244,3.0301782]},"id":"node/12634920470"},{"type":"Feature","properties":{"@id":"node/12634920471","bus":"yes","highway":"bus_stop","name":"Masjid Dato' Dagang","network":"Smart Selangor Bus","operator":"Rapid Bus","public_transport":"platform","ref":"BD34","route_ref":"KLG3A;KLG3B;KLG3C","shelter":"no"},"geometry":{"type":"Point","coordinates":[101.4602705,3.029175]},"id":"node/12634920471"},{"type":"Feature","properties":{"@id":"node/12634920472","bus":"yes","highway":"bus_stop","name":"Taman Raja Nong","network":"Smart Selangor Bus","operator":"Rapid Bus","public_transport":"platform","ref":"BD44","route_ref":"KLG3A;KLG3B;KLG3C","shelter":"no"},"geometry":{"type":"Point","coordinates":[101.4620561,3.028387]},"id":"node/12634920472"},{"type":"Feature","properties":{"@id":"node/12634920473","bus":"yes","highway":"bus_stop","name":"Masjid Dato' Dagang","network":"Smart Selangor Bus","operator":"Rapid Bus","public_transport":"platform","ref":"BD34","route_ref":"KLG3A;KLG3B;KLG3C","shelter":"no"},"geometry":{"type":"Point","coordinates":[101.4665558,3.0284576]},"id":"node/12634920473"},{"type":"Feature","properties":{"@id":"node/12634920474","bench":"yes","bus":"yes","highway":"bus_stop","name":"Taman Raja Nong","network":"Smart Selangor Bus","operator":"Rapid Bus","public_transport":"platform","route_ref":"KLG3A;KLG3B;KLG3C","shelter":"yes","tactile_paving":"yes"},"geometry":{"type":"Point","coordinates":[101.463698,3.0280086]},"id":"node/12634920474"},{"type":"Feature","properties":{"@id":"node/12634920482","bus":"yes","highway":"bus_stop","name":"Taman Raja Nong (Opp)","network":"Smart Selangor Bus","operator":"Rapid Bus","public_transport":"platform","route_ref":"KLG3A;KLG3B;KLG3C","shelter":"no"},"geometry":{"type":"Point","coordinates":[101.4637151,3.0281267]},"id":"node/12634920482"},{"type":"Feature","properties":{"@id":"node/12634920483","amenity":"shelter","bench":"yes","shelter":"yes","shelter_type":"public_transport"},"geometry":{"type":"Point","coordinates":[101.4661943,3.0259772]},"id":"node/12634920483"},{"type":"Feature","properties":{"@id":"node/12634920484","bench":"yes","bin":"yes","bus":"yes","highway":"bus_stop","name":"SK Kampung Jawa (Opp)","network":"Smart Selangor Bus","operator":"Rapid Bus","public_transport":"platform","ref":"BD544","route_ref":"KLG3A;KLG3B","shelter":"yes","tactile_paving":"yes"},"geometry":{"type":"Point","coordinates":[101.4666208,3.0250328]},"id":"node/12634920484"},{"type":"Feature","properties":{"@id":"node/12634920485","bench":"yes","bin":"yes","bus":"yes","highway":"bus_stop","name":"SK Kampung Jawa","network":"Smart Selangor Bus","operator":"Rapid Bus","public_transport":"platform","ref":"BD543","route_ref":"KLG3A;KLG3B","shelter":"yes","tactile_paving":"yes"},"geometry":{"type":"Point","coordinates":[101.466521,3.0242495]},"id":"node/12634920485"},{"type":"Feature","properties":{"@id":"node/12634920496","brand":"99 Speedmart","brand:wikidata":"Q62075061","name":"99 Speedmart","shop":"supermarket"},"geometry":{"type":"Point","coordinates":[101.466576,3.021291]},"id":"node/12634920496"},{"type":"Feature","properties":{"@id":"node/12634943507","bench":"yes","bin":"yes","bus":"yes","highway":"bus_stop","name":"Taman Saga 3","network":"Smart Selangor Bus","operator":"Rapid Bus","public_transport":"platform","route_ref":"KLG3A;KLG3B","shelter":"yes","tactile_paving":"yes"},"geometry":{"type":"Point","coordinates":[101.4670202,3.0206448]},"id":"node/12634943507"},{"type":"Feature","properties":{"@id":"node/12634943529","bus":"yes","highway":"bus_stop","name":"Bunga Raya Residences","network":"Smart Selangor Bus","operator":"Rapid Bus","public_transport":"platform","route_ref":"KLG3A;KLG3B","shelter":"no"},"geometry":{"type":"Point","coordinates":[101.4668535,3.0205385]},"id":"node/12634943529"},{"type":"Feature","properties":{"@id":"node/12634943530","bench":"yes","bin":"yes","bus":"yes","highway":"bus_stop","name":"Taman Sejati 5","network":"Smart Selangor Bus","operator":"Rapid Bus","public_transport":"platform","route_ref":"KLG3A;KLG3B","shelter":"yes","tactile_paving":"yes"},"geometry":{"type":"Point","coordinates":[101.466979,3.0162416]},"id":"node/12634943530"},{"type":"Feature","properties":{"@id":"node/12634943531","bench":"yes","bin":"yes","bus":"yes","highway":"bus_stop","name":"Taman Saujana Jati","network":"Smart Selangor Bus","operator":"Rapid Bus","public_transport":"platform","route_ref":"KLG3A;KLG3B","shelter":"yes","tactile_paving":"yes"},"geometry":{"type":"Point","coordinates":[101.4667463,3.0160983]},"id":"node/12634943531"},{"type":"Feature","properties":{"@id":"node/12634943538","bench":"yes","bus":"yes","highway":"bus_stop","name":"Taman Saujana (Timur)","network":"Smart Selangor Bus","operator":"Rapid Bus","public_transport":"platform","ref":"BD538","route_ref":"KLG3A","shelter":"yes"},"geometry":{"type":"Point","coordinates":[101.4629331,3.012149]},"id":"node/12634943538"},{"type":"Feature","properties":{"@id":"node/12634943539","bench":"yes","bus":"yes","highway":"bus_stop","name":"Taman Saujana (Timur)","network":"Smart Selangor Bus","operator":"Rapid Bus","public_transport":"platform","ref":"BD545","route_ref":"KLG3A","shelter":"yes"},"geometry":{"type":"Point","coordinates":[101.4623477,3.0120948]},"id":"node/12634943539"},{"type":"Feature","properties":{"@id":"node/12634943541","bench":"yes","bus":"yes","highway":"bus_stop","name":"Taman Saujana (Barat)","network":"Smart Selangor Bus","operator":"Rapid Bus","public_transport":"platform","ref":"BD537","route_ref":"KLG3A","shelter":"yes"},"geometry":{"type":"Point","coordinates":[101.4595547,3.0131476]},"id":"node/12634943541"},{"type":"Feature","properties":{"@id":"node/12634943542","bench":"yes","bus":"yes","highway":"bus_stop","name":"Taman Saujana (Barat)","network":"Smart Selangor Bus","operator":"Rapid Bus","public_transport":"platform","ref":"BD546","route_ref":"KLG3A","shelter":"yes"},"geometry":{"type":"Point","coordinates":[101.4589432,3.0136889]},"id":"node/12634943542"},{"type":"Feature","properties":{"@id":"node/12634943543","bench":"yes","bus":"yes","highway":"bus_stop","name":"Dewan Sukan Klang","network":"Smart Selangor Bus","old_name":"Dewan Sukan Sri Andalas, Klang","operator":"Rapid Bus","public_transport":"platform","ref":"BD547","route_ref":"KLG3A","shelter":"yes","tactile_paving":"yes"},"geometry":{"type":"Point","coordinates":[101.4514317,3.0152824]},"id":"node/12634943543"},{"type":"Feature","properties":{"@id":"node/12634943544","bus":"yes","highway":"bus_stop","name":"Dewan Sukan Klang (Opp)","network":"Smart Selangor Bus","operator":"Rapid Bus","public_transport":"platform","ref":"BD536","route_ref":"KLG3A","shelter":"no"},"geometry":{"type":"Point","coordinates":[101.4514417,3.0155081]},"id":"node/12634943544"},{"type":"Feature","properties":{"@id":"node/12635073843","bench":"yes","bin":"yes","bus":"yes","highway":"bus_stop","name":"KTM Free Shuttle Bus","operator":"Sanwa","public_transport":"platform","shelter":"yes","tactile_paving":"yes"},"geometry":{"type":"Point","coordinates":[101.5861022,3.0844627]},"id":"node/12635073843"},{"type":"Feature","properties":{"@id":"node/12635073846","bus":"yes","highway":"bus_stop","name":"Kilang Gula CSR","public_transport":"platform","ref":"SJ573","shelter":"no"},"geometry":{"type":"Point","coordinates":[101.5565141,3.071685]},"id":"node/12635073846"},{"type":"Feature","properties":{"@id":"node/12635090986","brand":"7-Eleven","brand:wikidata":"Q259340","name":"7-Eleven","shop":"convenience"},"geometry":{"type":"Point","coordinates":[101.7051696,3.1562584]},"id":"node/12635090986"},{"type":"Feature","properties":{"@id":"node/12635090995","amenity":"parking_entrance"},"geometry":{"type":"Point","coordinates":[101.7052697,3.1559132]},"id":"node/12635090995"},{"type":"Feature","properties":{"@id":"node/12635090997","amenity":"cafe","brand":"Starbucks","brand:wikidata":"Q37158","cuisine":"coffee_shop","name":"Starbucks","official_name":"Starbucks Coffee","takeaway":"yes"},"geometry":{"type":"Point","coordinates":[101.7052469,3.1561325]},"id":"node/12635090997"},{"type":"Feature","properties":{"@id":"node/12635090999","amenity":"parking_entrance"},"geometry":{"type":"Point","coordinates":[101.7059473,3.156189]},"id":"node/12635090999"},{"type":"Feature","properties":{"@id":"node/12635092813","amenity":"bank","brand":"Bangkok Bank","brand:wikidata":"Q806483","name":"Bangkok Bank"},"geometry":{"type":"Point","coordinates":[101.705555,3.1565378]},"id":"node/12635092813"},{"type":"Feature","properties":{"@id":"node/12635092814","amenity":"parking_entrance"},"geometry":{"type":"Point","coordinates":[101.7063175,3.1563753]},"id":"node/12635092814"},{"type":"Feature","properties":{"@id":"node/12635092815","amenity":"restaurant","name":"Tandoor Grill Restaurant"},"geometry":{"type":"Point","coordinates":[101.7053042,3.1563199]},"id":"node/12635092815"},{"type":"Feature","properties":{"@id":"node/12635123242","bus":"yes","highway":"bus_stop","name":"SMK Alam Damai","network":"MRT Feeder Bus","operator":"Rapid Bus","public_transport":"platform","ref":"KL2381","route_ref":"T412","shelter":"no"},"geometry":{"type":"Point","coordinates":[101.7392085,3.0588438]},"id":"node/12635123242"},{"type":"Feature","properties":{"@id":"node/12635123243","bus":"yes","highway":"bus_stop","name":"Flat Taman Desa Cheras Block 5","network":"MRT Feeder Bus;GO KL City Bus","operator":"Rapid Bus;DBKL","public_transport":"platform","ref":"KL2380","route_ref":"T412;GOKL15","shelter":"no"},"geometry":{"type":"Point","coordinates":[101.7373647,3.0569137]},"id":"node/12635123243"},{"type":"Feature","properties":{"@id":"node/12635149255","amenity":"cafe","brand":"Mixue","brand:en":"MIXUEBINGCHENG","brand:wikidata":"Q107406476","brand:zh":"蜜雪冰城","cuisine":"ice_cream;bubble_tea","name":"Mixue","name:en":"Mixue","name:zh":"蜜雪冰城","takeaway":"yes"},"geometry":{"type":"Point","coordinates":[101.6788622,3.1281149]},"id":"node/12635149255"},{"type":"Feature","properties":{"@id":"node/12635149256","brand":"FamilyMart","brand:wikidata":"Q11247682","name":"FamilyMart","shop":"convenience"},"geometry":{"type":"Point","coordinates":[101.6786916,3.127777]},"id":"node/12635149256"},{"type":"Feature","properties":{"@id":"node/12635196526","brand":"7-Eleven","brand:wikidata":"Q259340","name":"7-Eleven","shop":"convenience"},"geometry":{"type":"Point","coordinates":[101.7592531,3.1970957]},"id":"node/12635196526"},{"type":"Feature","properties":{"@id":"node/12635196527","asset_ref":"Jabatan Kerajaan Tempatan","bench":"yes","bin":"yes","bus":"yes","highway":"bus_stop","public_transport":"platform","shelter":"yes","tactile_paving":"yes"},"geometry":{"type":"Point","coordinates":[101.7595555,3.1963308]},"id":"node/12635196527"},{"type":"Feature","properties":{"@id":"node/12635196550","amenity":"shelter","bench":"yes","shelter_type":"public_transport"},"geometry":{"type":"Point","coordinates":[101.7704727,3.1821578]},"id":"node/12635196550"},{"type":"Feature","properties":{"@id":"node/12635196570","name":"Taman Kelab Ukay","place":"neighbourhood"},"geometry":{"type":"Point","coordinates":[101.7729723,3.1949188]},"id":"node/12635196570"},{"type":"Feature","properties":{"@id":"node/12635196571","name":"Taman Sering Ukay","place":"neighbourhood"},"geometry":{"type":"Point","coordinates":[101.7719266,3.1997975]},"id":"node/12635196571"},{"type":"Feature","properties":{"@id":"node/12635196572","name":"Ukay Seraya","place":"neighbourhood"},"geometry":{"type":"Point","coordinates":[101.7669888,3.1981908]},"id":"node/12635196572"},{"type":"Feature","properties":{"@id":"node/12635196577","brand":"99 Speedmart","brand:wikidata":"Q62075061","name":"99 Speedmart","shop":"supermarket"},"geometry":{"type":"Point","coordinates":[101.758297,3.1836069]},"id":"node/12635196577"},{"type":"Feature","properties":{"@id":"node/12635196578","amenity":"cafe","cuisine":"bubble_tea;ice_cream","name":"Wedrink","outdoor_seating":"no"},"geometry":{"type":"Point","coordinates":[101.7508497,3.1780449]},"id":"node/12635196578"},{"type":"Feature","properties":{"@id":"node/12635222849","addr:city":"GEMAS","addr:housenumber":"NO 1.","addr:postcode":"73420","addr:street":"PEKAN PASIR BESAR","mobile":"0196851550","name":"Kedai Cendawan Pekan Pekan Pasir Besar","opening_hours":"Mo-Fr 09:00-17:00","phone":"01112868618","shop":"hardware"},"geometry":{"type":"Point","coordinates":[102.5338188,2.6544865]},"id":"node/12635222849"},{"type":"Feature","properties":{"@id":"node/12635352055","name":"Ladang Sungai Jernih","place":"hamlet"},"geometry":{"type":"Point","coordinates":[101.5829855,3.556932]},"id":"node/12635352055"},{"type":"Feature","properties":{"@id":"node/12635563284","amenity":"fast_food","name":"Deen Corner"},"geometry":{"type":"Point","coordinates":[101.6985127,3.149865]},"id":"node/12635563284"},{"type":"Feature","properties":{"@id":"node/12635563286","amenity":"parking_entrance"},"geometry":{"type":"Point","coordinates":[101.6984503,3.1499188]},"id":"node/12635563286"},{"type":"Feature","properties":{"@id":"node/12635563287","addr:housenumber":"9;11","addr:street":"Jalan Gereja","amenity":"college","name":"KAGC College"},"geometry":{"type":"Point","coordinates":[101.6986704,3.1493182]},"id":"node/12635563287"},{"type":"Feature","properties":{"@id":"node/12635563295","amenity":"bar","name":"KKT Junction Bar"},"geometry":{"type":"Point","coordinates":[101.6986501,3.1495613]},"id":"node/12635563295"},{"type":"Feature","properties":{"@id":"node/12635715543","amenity":"ice_cream","name":"Momoyo"},"geometry":{"type":"Point","coordinates":[101.4846434,3.0653705]},"id":"node/12635715543"},{"type":"Feature","properties":{"@id":"node/12635715544","brand":"7-Eleven","brand:wikidata":"Q259340","name":"7-Eleven","shop":"convenience"},"geometry":{"type":"Point","coordinates":[101.4833825,3.0646342]},"id":"node/12635715544"},{"type":"Feature","properties":{"@id":"node/12635715545","amenity":"cafe","name":"WeDrink"},"geometry":{"type":"Point","coordinates":[101.4835078,3.0645829]},"id":"node/12635715545"},{"type":"Feature","properties":{"@id":"node/12635715546","amenity":"restaurant","name":"Nasi Kandar Stadium"},"geometry":{"type":"Point","coordinates":[101.4836463,3.0645192]},"id":"node/12635715546"},{"type":"Feature","properties":{"@id":"node/12635715547","name":"Ran Thai","shop":"convenience"},"geometry":{"type":"Point","coordinates":[101.4835708,3.0645534]},"id":"node/12635715547"},{"type":"Feature","properties":{"@id":"node/12635715548","amenity":"restaurant","name":"Hunger Lab"},"geometry":{"type":"Point","coordinates":[101.4834051,3.064952]},"id":"node/12635715548"},{"type":"Feature","properties":{"@id":"node/12635715549","shop":"confectionery"},"geometry":{"type":"Point","coordinates":[101.4838935,3.0653298]},"id":"node/12635715549"},{"type":"Feature","properties":{"@id":"node/12635715550","shop":"toys"},"geometry":{"type":"Point","coordinates":[101.4839044,3.0654805]},"id":"node/12635715550"},{"type":"Feature","properties":{"@id":"node/12635715551","amenity":"school","name":"Portman International"},"geometry":{"type":"Point","coordinates":[101.4849147,3.0660324]},"id":"node/12635715551"},{"type":"Feature","properties":{"@id":"node/12635715552","amenity":"parking_entrance","parking":"underground"},"geometry":{"type":"Point","coordinates":[101.4840877,3.0662309]},"id":"node/12635715552"},{"type":"Feature","properties":{"@id":"node/12635715555","amenity":"parking_entrance"},"geometry":{"type":"Point","coordinates":[101.484325,3.0632206]},"id":"node/12635715555"},{"type":"Feature","properties":{"@id":"node/12635715560","amenity":"parking_entrance"},"geometry":{"type":"Point","coordinates":[101.4843073,3.063362]},"id":"node/12635715560"},{"type":"Feature","properties":{"@id":"node/12635715571","bus":"yes","public_transport":"stop_position"},"geometry":{"type":"Point","coordinates":[101.4870899,3.0673247]},"id":"node/12635715571"},{"type":"Feature","properties":{"@id":"node/12636337146","bus":"yes","highway":"bus_stop","name":"Flat Taman Desa Cheras Blok 9","network":"MRT Feeder Bus","operator":"Rapid Bus","public_transport":"platform","ref":"KL2379","route_ref":"T412","shelter":"no"},"geometry":{"type":"Point","coordinates":[101.7380282,3.054884]},"id":"node/12636337146"},{"type":"Feature","properties":{"@id":"node/12636337156","bus":"yes","highway":"bus_stop","name":"Pangsapuri Seri Perindu","network":"Rapid KL Bus;MRT Feeder Bus;GO KL City Bus","operator":"Rapid Bus;DBKL","public_transport":"platform","ref":"KL2378","route_ref":"400;T412;GOKL15","shelter":"no"},"geometry":{"type":"Point","coordinates":[101.7407109,3.0548748]},"id":"node/12636337156"},{"type":"Feature","properties":{"@id":"node/12636337161","bus":"yes","highway":"bus_stop","name":"Taman Bukit Anggerik (Selatan)","network":"MRT Feeder Bus;GO KL City Bus","operator":"Rapid Bus;DBKL","public_transport":"platform","ref":"KL2376","route_ref":"T412;GOKL15","shelter":"no"},"geometry":{"type":"Point","coordinates":[101.7461643,3.060209]},"id":"node/12636337161"},{"type":"Feature","properties":{"@id":"node/12636337162","bus":"yes","highway":"bus_stop","name":"Flat Taman Bukit Anggerik","network":"MRT Feeder Bus;GO KL City Bus","operator":"Rapid Bus;DBKL","public_transport":"platform","ref":"KL2374","route_ref":"T412","shelter":"no"},"geometry":{"type":"Point","coordinates":[101.7461569,3.0643314]},"id":"node/12636337162"},{"type":"Feature","properties":{"@id":"node/12636337163","bench":"yes","bus":"yes","highway":"bus_stop","name":"MRT Taman Connaught Pintu C","network":"MRT Feeder Bus","operator":"Rapid Bus","public_transport":"platform","ref":"KL2365","route_ref":"T412","shelter":"yes"},"geometry":{"type":"Point","coordinates":[101.7460144,3.0770662]},"id":"node/12636337163"},{"type":"Feature","properties":{"@id":"node/12636337184","alt_name":"Taman Len Seng","bench":"yes","bus":"yes","highway":"bus_stop","name":"Komersial Taman Len Seng (2)","network":"MRT Feeder Bus;GO KL City Bus","operator":"Rapid Bus;DBKL","public_transport":"platform","ref":"KL413","route_ref":"T412;GOKL15Perumahan Taman Len Seng","shelter":"yes"},"geometry":{"type":"Point","coordinates":[101.7446131,3.0740657]},"id":"node/12636337184"},{"type":"Feature","properties":{"@id":"node/12636337185","bus":"yes","highway":"bus_stop","name":"Petronas Alam Damai","network":"MRT Feeder Bus","operator":"Rapid Bus","public_transport":"platform","ref":"KL402","route_ref":"T412","shelter":"no"},"geometry":{"type":"Point","coordinates":[101.7385011,3.0744653]},"id":"node/12636337185"},{"type":"Feature","properties":{"@id":"node/12636337187","amenity":"shelter","shelter_type":"public_transport"},"geometry":{"type":"Point","coordinates":[101.7378054,3.0557586]},"id":"node/12636337187"},{"type":"Feature","properties":{"@id":"node/12636337189","bus":"yes","highway":"bus_stop","name":"Flat Taman Desa Cheras Blok 11","network":"GO KL City Bus","operator":"DBKL","public_transport":"platform","route_ref":"GOKL15","shelter":"no"},"geometry":{"type":"Point","coordinates":[101.7391443,3.0548838]},"id":"node/12636337189"},{"type":"Feature","properties":{"@id":"node/12636337190","bus":"yes","highway":"bus_stop","name":"SMK Alam Damai","network":"GO KL City Bus","operator":"DBKL","public_transport":"platform","route_ref":"GOKL15","shelter":"no"},"geometry":{"type":"Point","coordinates":[101.7401673,3.0580807]},"id":"node/12636337190"},{"type":"Feature","properties":{"@id":"node/12636337191","bus":"yes","highway":"bus_stop","name":"SK Alam Damai","network":"GO KL City Bus","operator":"DBKL","public_transport":"platform","route_ref":"GOKL15","shelter":"no"},"geometry":{"type":"Point","coordinates":[101.7428054,3.058107]},"id":"node/12636337191"},{"type":"Feature","properties":{"@id":"node/12636337192","bus":"yes","highway":"bus_stop","name":"Dewan Serbaguna Alam Damai","network":"GO KL City Bus","operator":"DBKL","public_transport":"platform","route_ref":"GOKL15","shelter":"no"},"geometry":{"type":"Point","coordinates":[101.7453732,3.0577963]},"id":"node/12636337192"},{"type":"Feature","properties":{"@id":"node/12636337193","bus":"yes","highway":"bus_stop","name":"Jalan Damai Puspa 6","network":"GO KL City Bus","operator":"DBKL","public_transport":"platform","route_ref":"GOKL15","shelter":"no"},"geometry":{"type":"Point","coordinates":[101.7460264,3.0600848]},"id":"node/12636337193"},{"type":"Feature","properties":{"@id":"node/12636337194","bus":"yes","highway":"bus_stop","name":"Madrasah Ehsaniah (Opp)","network":"GO KL City Bus","operator":"DBKL","public_transport":"platform","route_ref":"GOKL15","shelter":"no"},"geometry":{"type":"Point","coordinates":[101.7460145,3.0623365]},"id":"node/12636337194"},{"type":"Feature","properties":{"@id":"node/12636337195","bench":"yes","bus":"yes","highway":"bus_stop","name":"Taman Bukit Anggerik","network":"GO KL City Bus","operator":"DBKL","public_transport":"platform","route_ref":"GOKL15","shelter":"yes"},"geometry":{"type":"Point","coordinates":[101.7460327,3.0633917]},"id":"node/12636337195"},{"type":"Feature","properties":{"@id":"node/12636337196","bus":"yes","highway":"bus_stop","name":"Petronas Alam Damai","network":"GO KL City Bus","operator":"DBKL","public_transport":"platform","route_ref":"GOKL15","shelter":"no"},"geometry":{"type":"Point","coordinates":[101.7457065,3.0704771]},"id":"node/12636337196"},{"type":"Feature","properties":{"@id":"node/12636337197","bus":"yes","highway":"bus_stop","name":"Petronas Alam Damai (Opp)","network":"GO KL City Bus","operator":"DBKL","public_transport":"platform","route_ref":"GOKL15","shelter":"no"},"geometry":{"type":"Point","coordinates":[101.7458384,3.0701448]},"id":"node/12636337197"},{"type":"Feature","properties":{"@id":"node/12636337198","bus":"yes","highway":"bus_stop","name":"Hentian Jalan 4 (Utara)","network":"GO KL City Bus","operator":"DBKL","public_transport":"platform","route_ref":"GOKL15","shelter":"no"},"geometry":{"type":"Point","coordinates":[101.7457821,3.0724693]},"id":"node/12636337198"},{"type":"Feature","properties":{"@id":"node/12636337199","alt_name":"Perumahan Taman Len Seng","bus":"yes","highway":"bus_stop","name":"Hentian Jalan 4 (Selatan)","network":"GO KL City Bus","operator":"DBKL","public_transport":"platform","route_ref":"GOKL15","shelter":"no"},"geometry":{"type":"Point","coordinates":[101.7456761,3.0728877]},"id":"node/12636337199"},{"type":"Feature","properties":{"@id":"node/12636337200","bench":"yes","bus":"yes","highway":"bus_stop","name":"Pusat Komersial Taman Len Seng","network":"GO KL City Bus","operator":"DBKL","public_transport":"platform","route_ref":"GOKL15","shelter":"yes"},"geometry":{"type":"Point","coordinates":[101.744274,3.0738518]},"id":"node/12636337200"},{"type":"Feature","properties":{"@id":"node/12636345604","bus":"yes","highway":"bus_stop","name":"Le Quadri Hotel","network":"GO KL City Bus","operator":"DBKL","public_transport":"platform","route_ref":"GOKL15","shelter":"no"},"geometry":{"type":"Point","coordinates":[101.7331411,3.0772941]},"id":"node/12636345604"},{"type":"Feature","properties":{"@id":"node/12636345606","bus":"yes","highway":"bus_stop","name":"Persiaran Mewah (Utara)","network":"GO KL City Bus","operator":"DBKL","public_transport":"platform","route_ref":"GOKL15","shelter":"no"},"geometry":{"type":"Point","coordinates":[101.7228741,3.0837531]},"id":"node/12636345606"},{"type":"Feature","properties":{"@id":"node/12636345608","brand":"KK Super Mart","brand:wikidata":"Q95721993","name":"KK Super Mart","shop":"convenience","short_name":"KK"},"geometry":{"type":"Point","coordinates":[101.7437273,3.0736492]},"id":"node/12636345608"},{"type":"Feature","properties":{"@id":"node/12636564970","bus":"yes","highway":"bus_stop","name":"Simpang Jujur 4","network":"GO KL City Bus","operator":"DBKL","public_transport":"platform","ref":"KL301","route_ref":"GOKL15","shelter":"no"},"geometry":{"type":"Point","coordinates":[101.7194413,3.0847334]},"id":"node/12636564970"},{"type":"Feature","properties":{"@id":"node/12636564971","bus":"yes","highway":"bus_stop","name":"Taman Mulia","network":"MRT Feeder Bus;GO KL City Bus","operator":"Rapid Bus;DBKL","public_transport":"platform","ref":"KL1974","route_ref":"T400;GOKL15","shelter":"no"},"geometry":{"type":"Point","coordinates":[101.7165825,3.0904331]},"id":"node/12636564971"},{"type":"Feature","properties":{"@id":"node/12636564972","bus":"yes","highway":"bus_stop","name":"Apartment Desa Bangsawan","network":"MRT Feeder Bus;GO KL City Bus","operator":"Rapid Bus;DBKL","public_transport":"platform","ref":"KL2390","route_ref":"T400;GOKL15","shelter":"no"},"geometry":{"type":"Point","coordinates":[101.7188406,3.0891835]},"id":"node/12636564972"},{"type":"Feature","properties":{"@id":"node/12636564973","bench":"yes","bin":"yes","bus":"yes","highway":"bus_stop","name":"Madrasah Makarimul Akhlak","network":"MRT Feeder Bus","operator":"Rapid Bus","public_transport":"platform","ref":"KL288","route_ref":"T400","shelter":"yes"},"geometry":{"type":"Point","coordinates":[101.7225502,3.0878172]},"id":"node/12636564973"},{"type":"Feature","properties":{"@id":"node/12636564974","bench":"yes","bin":"yes","bus":"yes","highway":"bus_stop","name":"Kawasan Perindustrian Bandar Tun Razak","network":"MRT Feeder Bus","operator":"Rapid Bus","public_transport":"platform","ref":"KL289","route_ref":"T400","shelter":"yes"},"geometry":{"type":"Point","coordinates":[101.723322,3.086651]},"id":"node/12636564974"},{"type":"Feature","properties":{"@id":"node/12636564975","bench":"yes","bus":"yes","highway":"bus_stop","name":"Pusat Belia Antarabangsa KL","network":"MRT Feeder Bus;GO KL City Bus","operator":"Rapid Bus;DBKL","public_transport":"platform","ref":"KL349","route_ref":"T400;T402;GOKL11;GOKL15","shelter":"yes","tactile_paving":"yes"},"geometry":{"type":"Point","coordinates":[101.7227972,3.0959909]},"id":"node/12636564975"},{"type":"Feature","properties":{"@id":"node/12636564976","bench":"yes","bin":"yes","bus":"yes","highway":"bus_stop","name":"Pusat Belia Antarabangsa KL (Opp)","network":"MRT Feeder Bus;GO KL City Bus","operator":"Rapid Bus;DBKL","public_transport":"platform","ref":"KL284","route_ref":"T400;T402;GOKL11;GOKL15","shelter":"yes"},"geometry":{"type":"Point","coordinates":[101.7229362,3.0963724]},"id":"node/12636564976"},{"type":"Feature","properties":{"@id":"node/12636564977","bench":"yes","bin":"yes","bus":"yes","highway":"bus_stop","name":"Kelab Renang Cheras (Opp)","network":"MRT Feeder Bus;GO KL City Bus","operator":"Rapid Bus;DBKL","public_transport":"platform","ref":"KL283","route_ref":"T400;T402;GOKL11;GOKL15","shelter":"yes","tactile_paving":"yes"},"geometry":{"type":"Point","coordinates":[101.7225343,3.0982983]},"id":"node/12636564977"},{"type":"Feature","properties":{"@id":"node/12636564980","bus":"yes","highway":"bus_stop","name":"Taman Jaya (Utara)","network":"MRT Feeder Bus","operator":"Rapid Bus","public_transport":"platform","ref":"KL1843","route_ref":"T400"},"geometry":{"type":"Point","coordinates":[101.7252666,3.0943908]},"id":"node/12636564980"},{"type":"Feature","properties":{"@id":"node/12636564981","bus":"yes","highway":"bus_stop","name":"Taman Midah (Barat)","network":"MRT Feeder Bus","operator":"Rapid Bus","public_transport":"platform","ref":"KL1893","route_ref":"T400"},"geometry":{"type":"Point","coordinates":[101.7261757,3.0963739]},"id":"node/12636564981"},{"type":"Feature","properties":{"@id":"node/12636564982","bus":"yes","highway":"bus_stop","name":"SK Taman Midah","network":"MRT Feeder Bus","operator":"Rapid Bus","public_transport":"platform","ref":"KL1913","route_ref":"T400"},"geometry":{"type":"Point","coordinates":[101.7271125,3.0969037]},"id":"node/12636564982"},{"type":"Feature","properties":{"@id":"node/12636564983","bus":"yes","highway":"bus_stop","name":"Pusat Komersial Taman Midah","network":"MRT Feeder Bus","operator":"Rapid Bus","public_transport":"platform","ref":"KL1969","route_ref":"T400"},"geometry":{"type":"Point","coordinates":[101.7289394,3.0965809]},"id":"node/12636564983"},{"type":"Feature","properties":{"@id":"node/12636564984","bus":"yes","highway":"bus_stop","name":"Taman Midah (Timur)","network":"MRT Feeder Bus","operator":"Rapid Bus","public_transport":"platform","ref":"KL1971","route_ref":"T400"},"geometry":{"type":"Point","coordinates":[101.7287913,3.0940476]},"id":"node/12636564984"},{"type":"Feature","properties":{"@id":"node/12636564985","bus":"yes","highway":"bus_stop","name":"Bandar Tun Razak (Timur)","network":"MRT Feeder Bus","operator":"Rapid Bus","public_transport":"platform","ref":"KL1972","route_ref":"T400"},"geometry":{"type":"Point","coordinates":[101.7267736,3.0921681]},"id":"node/12636564985"},{"type":"Feature","properties":{"@id":"node/12636564986","bus":"yes","highway":"bus_stop","name":"Taman Midah (Selatan)","network":"MRT Feeder Bus","operator":"Rapid Bus","public_transport":"platform","ref":"KL345","route_ref":"T400"},"geometry":{"type":"Point","coordinates":[101.7257908,3.0902932]},"id":"node/12636564986"},{"type":"Feature","properties":{"@id":"node/12636564987","bus":"yes","highway":"bus_stop","name":"Perindustrian Kilang Midah","network":"MRT Feeder Bus","operator":"Rapid Bus","public_transport":"platform","ref":"KL346","route_ref":"T400"},"geometry":{"type":"Point","coordinates":[101.723924,3.0890934]},"id":"node/12636564987"},{"type":"Feature","properties":{"@id":"node/12636564988","bus":"yes","highway":"bus_stop","name":"Balai Bomba Tun Razak","network":"MRT Feeder Bus","operator":"Rapid Bus","public_transport":"platform","ref":"KL1676","route_ref":"T400"},"geometry":{"type":"Point","coordinates":[101.722349,3.0889798]},"id":"node/12636564988"},{"type":"Feature","properties":{"@id":"node/12636564999","bench":"yes","bin":"yes","bus":"yes","highway":"bus_stop","name":"Balai Bomba Bandar Tun Razak","network":"GO KL City Bus","operator":"DBKL","public_transport":"platform","ref":"KL286","route_ref":"GOKL11;GOKL15","shelter":"yes"},"geometry":{"type":"Point","coordinates":[101.7216734,3.0906215]},"id":"node/12636564999"},{"type":"Feature","properties":{"@id":"node/12636565000","bus":"yes","highway":"bus_stop","name":"The Holmes 2","network":"GO KL City Bus","operator":"DBKL","public_transport":"platform","route_ref":"GOKL15","shelter":"no"},"geometry":{"type":"Point","coordinates":[101.720392,3.0888466]},"id":"node/12636565000"},{"type":"Feature","properties":{"@id":"node/12636593521","amenity":"taxi","bench":"yes","shelter":"yes","tactile_paving":"yes"},"geometry":{"type":"Point","coordinates":[101.7228758,3.095537]},"id":"node/12636593521"},{"type":"Feature","properties":{"@id":"node/12636593525","bench":"yes","bin":"yes","bus":"yes","highway":"bus_stop","name":"Persiaran Mewah (Utara)","network":"GO KL City Bus","operator":"DBKL","public_transport":"platform","ref":"KL285","route_ref":"GOKL11;GOKL15","shelter":"yes"},"geometry":{"type":"Point","coordinates":[101.7230621,3.0932778]},"id":"node/12636593525"},{"type":"Feature","properties":{"@id":"node/12636593533","amenity":"taxi","bench":"yes","shelter":"yes"},"geometry":{"type":"Point","coordinates":[101.7195366,3.084579]},"id":"node/12636593533"},{"type":"Feature","properties":{"@id":"node/12636593535","bench":"yes","bin":"yes","bus":"yes","highway":"bus_stop","name":"Surau Al-Amin (Opp)","network":"GO KL City Bus","old_name":"Surau Jumaat Al-Amin (Opp)","operator":"DBKL","public_transport":"platform","ref":"KL299","route_ref":"GOKL15","shelter":"yes","tactile_paving":"yes"},"geometry":{"type":"Point","coordinates":[101.7158817,3.0865791]},"id":"node/12636593535"},{"type":"Feature","properties":{"@id":"node/12636593536","bench":"yes","bus":"yes","highway":"bus_stop","name":"Flat Taman Mulia (Opp)","network":"GO KL City Bus","operator":"DBKL","public_transport":"platform","ref":"KL298","route_ref":"GOKL15","shelter":"yes"},"geometry":{"type":"Point","coordinates":[101.7151643,3.0880765]},"id":"node/12636593536"},{"type":"Feature","properties":{"@id":"node/12636593545","amenity":"shelter","bench":"yes","shelter_type":"public_transport"},"geometry":{"type":"Point","coordinates":[101.7146692,3.0899452]},"id":"node/12636593545"},{"type":"Feature","properties":{"@id":"node/12636593546","amenity":"shelter","bench":"yes","shelter_type":"public_transport"},"geometry":{"type":"Point","coordinates":[101.7136661,3.089942]},"id":"node/12636593546"},{"type":"Feature","properties":{"@id":"node/12636593553","bench":"yes","bin":"yes","bus":"yes","highway":"bus_stop","name":"Taman Mulia (Opp)","network":"GO KL City Bus","operator":"DBKL","public_transport":"platform","ref":"KL1975","route_ref":"GOKL15","shelter":"yes"},"geometry":{"type":"Point","coordinates":[101.7159407,3.0898609]},"id":"node/12636593553"},{"type":"Feature","properties":{"@id":"node/12636593554","bus":"yes","highway":"bus_stop","name":"Masjid Saidina Othman (Opp)","network":"GO KL City Bus","operator":"DBKL","public_transport":"platform","route_ref":"GOKL11;GOKL15","shelter":"no"},"geometry":{"type":"Point","coordinates":[101.7179942,3.0896981]},"id":"node/12636593554"},{"type":"Feature","properties":{"@id":"node/12637549401","addr:housenumber":"87","addr:postcode":"10200","addr:street":"Lebuh Muntri","internet_access":"wlan","name":"Swing & Pillows @ Muntri","opening_hours":"24/7","phone":"+60 18-469 2288","tourism":"hotel","website":"https://www.swingandpillows.com/"},"geometry":{"type":"Point","coordinates":[100.3349078,5.4199638]},"id":"node/12637549401"},{"type":"Feature","properties":{"@id":"node/12638326531","amenity":"cafe","brand":"Mixue","brand:en":"MIXUEBINGCHENG","brand:wikidata":"Q107406476","brand:zh":"蜜雪冰城","cuisine":"ice_cream;bubble_tea","name":"Mixue","name:en":"Mixue","name:zh":"蜜雪冰城","opening_hours":"Su-Th 11:00-22:00; Fr,Sa 11:00-23:00","takeaway":"yes"},"geometry":{"type":"Point","coordinates":[100.3213859,5.4234014]},"id":"node/12638326531"},{"type":"Feature","properties":{"@id":"node/12638326532","amenity":"fast_food","brand":"Subway","brand:wikidata":"Q244457","cuisine":"sandwich","name":"Subway","takeaway":"yes"},"geometry":{"type":"Point","coordinates":[100.3262329,5.4220761]},"id":"node/12638326532"},{"type":"Feature","properties":{"@id":"node/12638355157","name":"Imola Automotive","opening_hours":"Mo-Su 09:30-19:00","phone":"+60122111585","shop":"car_repair","website":"https://www.imola.com.my/"},"geometry":{"type":"Point","coordinates":[101.7306342,3.1583286]},"id":"node/12638355157"},{"type":"Feature","properties":{"@id":"node/12638355158","fixme":"Exact location?","hairdresser":"barber","name":"Imola Barbershop","opening_hours":"Mo-Su 10:00-19:00","phone":"+60122111585","shop":"hairdresser"},"geometry":{"type":"Point","coordinates":[101.7305678,3.1581804]},"id":"node/12638355158"},{"type":"Feature","properties":{"@id":"node/12638355171","email":"dtcmsb.2020@gmail.com","name":"DTC Carlifestyle","phone":"+60321443110","second_hand":"yes","shop":"car","website":"https://dtccarlifestyle.com/"},"geometry":{"type":"Point","coordinates":[101.730289,3.1591816]},"id":"node/12638355171"},{"type":"Feature","properties":{"@id":"node/12638466041","bus":"yes","public_transport":"stop_position"},"geometry":{"type":"Point","coordinates":[101.5921355,3.1495008]},"id":"node/12638466041"},{"type":"Feature","properties":{"@id":"node/12638466044","bench":"yes","bin":"yes","bus":"yes","departures_board":"no","highway":"bus_stop","name":"MRT Surian Pintu A","network":"MRT Feeder Bus","operator":"Rapid Bus","public_transport":"platform","ref":"PJ387","route_ref":"T807","shelter":"yes","tactile_paving":"no","wheelchair":"yes"},"geometry":{"type":"Point","coordinates":[101.5921328,3.1493907]},"id":"node/12638466044"},{"type":"Feature","properties":{"@id":"node/12638466081","amenity":"fast_food","brand":"Burger King","brand:wikidata":"Q177054","cuisine":"burger","name":"Burger King","takeaway":"yes"},"geometry":{"type":"Point","coordinates":[101.5950633,3.1360116]},"id":"node/12638466081"},{"type":"Feature","properties":{"@id":"node/12638466086","brand":"myNEWS.com","brand:wikidata":"Q17147574","name":"myNEWS.com","shop":"convenience"},"geometry":{"type":"Point","coordinates":[101.5944149,3.1299579]},"id":"node/12638466086"},{"type":"Feature","properties":{"@id":"node/12638529417","bench":"yes","bus":"yes","highway":"bus_stop","name":"LRT Damansara Idaman","operator":"Rapid Bus","public_transport":"platform","shelter":"yes","tactile_paving":"yes"},"geometry":{"type":"Point","coordinates":[101.5932333,3.1229117]},"id":"node/12638529417"},{"type":"Feature","properties":{"@id":"node/12638529469","name":"MeMi ZoooZooo","shop":"supermarket"},"geometry":{"type":"Point","coordinates":[101.5906164,3.1174388]},"id":"node/12638529469"},{"type":"Feature","properties":{"@id":"node/12638529471","bus":"yes","highway":"bus_stop","name":"Pusat Dagangan NZX (Opp)","network":"MRT Feeder Bus","operator":"Rapid Bus","public_transport":"platform","route_ref":"T807","shelter":"yes"},"geometry":{"type":"Point","coordinates":[101.5911007,3.1148548]},"id":"node/12638529471"},{"type":"Feature","properties":{"@id":"node/12638529475","brand":"7-Eleven","brand:wikidata":"Q259340","name":"7-Eleven","shop":"convenience"},"geometry":{"type":"Point","coordinates":[101.5912602,3.1132659]},"id":"node/12638529475"},{"type":"Feature","properties":{"@id":"node/12638529476","bench":"yes","bus":"yes","highway":"bus_stop","name":"LRT Lembah Subang (dropoff)","network":"MRT Feeder Bus","operator":"Rapid Bus","public_transport":"platform","ref":"PJ671","route_ref":"T807","shelter":"yes"},"geometry":{"type":"Point","coordinates":[101.5912609,3.112346]},"id":"node/12638529476"},{"type":"Feature","properties":{"@id":"node/12638529482","bus":"yes","public_transport":"stop_position"},"geometry":{"type":"Point","coordinates":[101.5912112,3.1122805]},"id":"node/12638529482"},{"type":"Feature","properties":{"@id":"node/12638577905","bench":"no","bus":"yes","highway":"bus_stop","name":"Avenue 23 Sunway Damansara","network":"MRT Feeder Bus","operator":"Rapid Bus","public_transport":"platform","route_ref":"T807","shelter":"no"},"geometry":{"type":"Point","coordinates":[101.5986436,3.1415479]},"id":"node/12638577905"},{"type":"Feature","properties":{"@id":"node/12638599272","name":"Kampung Parit Abas","place":"hamlet"},"geometry":{"type":"Point","coordinates":[100.4306529,5.0209033]},"id":"node/12638599272"},{"type":"Feature","properties":{"@id":"node/12638630341","amenity":"community_centre","community_centre":"community_hall"},"geometry":{"type":"Point","coordinates":[116.1391144,6.0337899]},"id":"node/12638630341"},{"type":"Feature","properties":{"@id":"node/12638671790","amenity":"cafe","brand":"Mixue Ice Cream & Tea","brand:en":"MIXUEBINGCHENG","brand:wikidata":"Q107406476","brand:zh":"蜜雪冰城","cuisine":"ice_cream;bubble_tea","name":"Mixue","name:en":"Mixue","name:zh":"蜜雪冰城","takeaway":"yes"},"geometry":{"type":"Point","coordinates":[101.5887095,3.117808]},"id":"node/12638671790"},{"type":"Feature","properties":{"@id":"node/12638683494","bench":"yes","bus":"yes","highway":"bus_stop","name":"Komersial Taman Salak Selatan","network":"MRT Feeder Bus","operator":"Rapid Bus","public_transport":"platform","ref":"KL795","route_ref":"T559","shelter":"yes"},"geometry":{"type":"Point","coordinates":[101.6974721,3.0837114]},"id":"node/12638683494"},{"type":"Feature","properties":{"@id":"node/12638692900","bus":"yes","highway":"bus_stop","name":"Fakulti Sains & Kesihatan UPM (Barat)","public_transport":"platform","ref":"SP296","shelter":"no","source":"https://www.mapillary.com/app/?pKey=2886565601491897&focus=photo"},"geometry":{"type":"Point","coordinates":[101.7143186,2.975844]},"id":"node/12638692900"},{"type":"Feature","properties":{"@id":"node/12638739801","bus":"yes","highway":"bus_stop","name":"Fakulti Sains & Kesihatan UPM (Timur)","public_transport":"platform","ref":"SP297","shelter":"no","source":"https://www.mapillary.com/app/?pKey=478606938021169&focus=photo"},"geometry":{"type":"Point","coordinates":[101.7163542,2.9757788]},"id":"node/12638739801"},{"type":"Feature","properties":{"@id":"node/12638739802","bus":"yes","highway":"bus_stop","name":"Fakulti Sains & Kesihatan UPM (Timur)","public_transport":"platform","ref":"SP294","shelter":"no","source":"https://www.mapillary.com/app/?pKey=1139634870613824&focus=photo"},"geometry":{"type":"Point","coordinates":[101.7161992,2.9755393]},"id":"node/12638739802"},{"type":"Feature","properties":{"@id":"node/12638739808","bench":"yes","bus":"yes","highway":"bus_stop","name":"Kolej Tiga Belas","network":"MRT Feeder Bus","old_name":"Kolej 13 UPM","operator":"Rapid Bus","public_transport":"platform","ref":"SJ162","shelter":"yes"},"geometry":{"type":"Point","coordinates":[101.7107538,2.990584]},"id":"node/12638739808"},{"type":"Feature","properties":{"@id":"node/12638739810","bench":"yes","bus":"yes","highway":"bus_stop","name":"Kolej Serumpun Foodcourt","network":"MRT Feeder Bus","old_name":"Serumpun Food Court UPM","operator":"Rapid Bus","public_transport":"platform","ref":"SJ162","shelter":"yes"},"geometry":{"type":"Point","coordinates":[101.715364,2.9920896]},"id":"node/12638739810"},{"type":"Feature","properties":{"@id":"node/12638739816","bus":"yes","highway":"bus_stop","name":"Kolej Canselor","network":"MRT Feeder Bus","operator":"Rapid Bus","public_transport":"platform","ref":"SJ824","shelter":"no"},"geometry":{"type":"Point","coordinates":[101.7087851,2.9952083]},"id":"node/12638739816"},{"type":"Feature","properties":{"@id":"node/12638739818","amenity":"cafe","brand":"Tealive","brand:wikidata":"Q95722097","cuisine":"tea;coffee_shop","name":"Tealive","takeaway":"yes"},"geometry":{"type":"Point","coordinates":[101.707395,2.9994598]},"id":"node/12638739818"},{"type":"Feature","properties":{"@id":"node/12638741342","bus":"yes","highway":"bus_stop","name":"Peladang Sungai Petani","network":"Rapid Penang","network:wikidata":"Q4259055","operator":"Rapid Bus","operator:wikidata":"Q7294127","public_transport":"platform","ref":"12000126","route_ref":"EB60"},"geometry":{"type":"Point","coordinates":[100.4736908,5.6190402]},"id":"node/12638741342"},{"type":"Feature","properties":{"@id":"node/12638741343","bench":"yes","bus":"yes","highway":"bus_stop","name":"Lotus's Bakar Arang","network":"Rapid Penang","network:wikidata":"Q4259055","operator":"Rapid Bus","operator:wikidata":"Q7294127","public_transport":"platform","ref":"12000128","route_ref":"EB60","shelter":"yes"},"geometry":{"type":"Point","coordinates":[100.4760756,5.6218871]},"id":"node/12638741343"},{"type":"Feature","properties":{"@id":"node/12638741344","bench":"yes","bus":"yes","highway":"bus_stop","name":"Lotus's Bakar Arang","network":"Rapid Penang","network:wikidata":"Q4259055","operator":"Rapid Bus","operator:wikidata":"Q7294127","public_transport":"platform","ref":"12000129","route_ref":"EB60","shelter":"yes"},"geometry":{"type":"Point","coordinates":[100.4765079,5.6218203]},"id":"node/12638741344"},{"type":"Feature","properties":{"@id":"node/12638741345","bench":"yes","bus":"yes","highway":"bus_stop","name":"Longwan","network":"Rapid Penang","network:wikidata":"Q4259055","operator":"Rapid Bus","operator:wikidata":"Q7294127","public_transport":"platform","ref":"12000130","route_ref":"EB60","shelter":"yes"},"geometry":{"type":"Point","coordinates":[100.4782688,5.6242511]},"id":"node/12638741345"},{"type":"Feature","properties":{"@id":"node/12638741346","bench":"yes","bus":"yes","highway":"bus_stop","name":"SMK Che Tom","network":"Rapid Penang","network:wikidata":"Q4259055","operator":"Rapid Bus","operator:wikidata":"Q7294127","public_transport":"platform","ref":"12000131","route_ref":"EB60","shelter":"yes"},"geometry":{"type":"Point","coordinates":[100.4787935,5.6244126]},"id":"node/12638741346"},{"type":"Feature","properties":{"@id":"node/12638741347","bench":"yes","bus":"yes","highway":"bus_stop","name":"Pejabat Pos Bakar Arang","network":"Rapid Penang","network:wikidata":"Q4259055","operator":"Rapid Bus","operator:wikidata":"Q7294127","public_transport":"platform","ref":"12000132","route_ref":"EB60","shelter":"yes"},"geometry":{"type":"Point","coordinates":[100.4806335,5.6289696]},"id":"node/12638741347"},{"type":"Feature","properties":{"@id":"node/12638741348","bench":"yes","bus":"yes","highway":"bus_stop","name":"DSOP Sungai Petani","network":"Rapid Penang","network:wikidata":"Q4259055","operator":"Rapid Bus","operator:wikidata":"Q7294127","public_transport":"platform","ref":"12000133","route_ref":"EB60","shelter":"yes"},"geometry":{"type":"Point","coordinates":[100.4823878,5.6323328]},"id":"node/12638741348"},{"type":"Feature","properties":{"@id":"node/12638741349","bench":"yes","bus":"yes","highway":"bus_stop","name":"MSU","network":"Rapid Penang","network:wikidata":"Q4259055","operator":"Rapid Bus","operator:wikidata":"Q7294127","public_transport":"platform","ref":"12000134","route_ref":"EB60","shelter":"yes"},"geometry":{"type":"Point","coordinates":[100.4828703,5.6326627]},"id":"node/12638741349"},{"type":"Feature","properties":{"@id":"node/12638741351","brand":"FamilyMart","brand:wikidata":"Q11247682","name":"FamilyMart","shop":"convenience"},"geometry":{"type":"Point","coordinates":[100.479763,5.6279504]},"id":"node/12638741351"},{"type":"Feature","properties":{"@id":"node/12638741352","brand":"99 Speedmart","brand:wikidata":"Q62075061","name":"99 Speedmart","shop":"supermarket"},"geometry":{"type":"Point","coordinates":[100.4815862,5.6301558]},"id":"node/12638741352"},{"type":"Feature","properties":{"@id":"node/12638741353","brand":"7-Eleven","brand:wikidata":"Q259340","name":"7-Eleven","shop":"convenience"},"geometry":{"type":"Point","coordinates":[100.4882398,5.6365738]},"id":"node/12638741353"},{"type":"Feature","properties":{"@id":"node/12638741354","brand":"7-Eleven","brand:wikidata":"Q259340","name":"7-Eleven","shop":"convenience"},"geometry":{"type":"Point","coordinates":[100.4869186,5.6401796]},"id":"node/12638741354"},{"type":"Feature","properties":{"@id":"node/12638741355","brand":"MR.DIY","brand:wikidata":"Q105044323","name":"MR.DIY","shop":"doityourself"},"geometry":{"type":"Point","coordinates":[100.4907835,5.6448771]},"id":"node/12638741355"},{"type":"Feature","properties":{"@id":"node/12638741794","amenity":"restaurant","name":"Scott Matrix Cafe"},"geometry":{"type":"Point","coordinates":[101.6923583,3.1333742]},"id":"node/12638741794"},{"type":"Feature","properties":{"@id":"node/12638741795","name":"Brickfields Aquarium & Pets","shop":"pet"},"geometry":{"type":"Point","coordinates":[101.692606,3.1336011]},"id":"node/12638741795"},{"type":"Feature","properties":{"@id":"node/12638741796","name":"The Designers","shop":"clothes"},"geometry":{"type":"Point","coordinates":[101.6925159,3.133508]},"id":"node/12638741796"},{"type":"Feature","properties":{"@id":"node/12638741797","name":"YG Beauty & Herbal Hair Care","shop":"beauty"},"geometry":{"type":"Point","coordinates":[101.6922797,3.1332986]},"id":"node/12638741797"},{"type":"Feature","properties":{"@id":"node/12638750005","name":"Ram Cut Men’s Salon","shop":"hairdresser"},"geometry":{"type":"Point","coordinates":[101.6924231,3.1334562]},"id":"node/12638750005"},{"type":"Feature","properties":{"@id":"node/12638833670","amenity":"parking_entrance"},"geometry":{"type":"Point","coordinates":[101.6929454,3.1341487]},"id":"node/12638833670"},{"type":"Feature","properties":{"@id":"node/12638859556","brand":"eco-shop","brand:wikidata":"Q95721269","name":"eco-shop","shop":"variety_store"},"geometry":{"type":"Point","coordinates":[101.7231298,3.0100206]},"id":"node/12638859556"},{"type":"Feature","properties":{"@id":"node/12639819530","amenity":"fast_food","brand":"Marrybrown","brand:wikidata":"Q3380773","cuisine":"malaysian;chicken;burger","diet:halal":"yes","name":"Marrybrown","takeaway":"yes"},"geometry":{"type":"Point","coordinates":[100.9399523,4.7723357]},"id":"node/12639819530"},{"type":"Feature","properties":{"@id":"node/12639819531","amenity":"cafe","brand":"ZUS Coffee","brand:wikidata":"Q110811473","cuisine":"coffee_shop","name":"ZUS Coffee","takeaway":"yes"},"geometry":{"type":"Point","coordinates":[100.9416233,4.7765664]},"id":"node/12639819531"},{"type":"Feature","properties":{"@id":"node/12639819532","brand":"Baker's Cottage","brand:wikidata":"Q107801364","name":"Baker's Cottage","shop":"bakery"},"geometry":{"type":"Point","coordinates":[100.9417735,4.778011]},"id":"node/12639819532"},{"type":"Feature","properties":{"@id":"node/12639877711","tourism":"viewpoint"},"geometry":{"type":"Point","coordinates":[118.1745443,4.9648995]},"id":"node/12639877711"},{"type":"Feature","properties":{"@id":"node/12639880300","attraction":"yes","height":"33","man_made":"tower","name:en":"Tower of Heaven","name:ms":"Menara Kayangan","note":"Menara Kayangan | Tower of Heaven is the official name of this observation tower","tourism":"yes","tower:type":"observation"},"geometry":{"type":"Point","coordinates":[118.1743788,4.9650472]},"id":"node/12639880300"},{"type":"Feature","properties":{"@id":"node/12639952642","amenity":"bank","brand":"Maybank","brand:wikidata":"Q1364018","name":"Maybank"},"geometry":{"type":"Point","coordinates":[101.719138,3.1614601]},"id":"node/12639952642"},{"type":"Feature","properties":{"@id":"node/12640131194","amenity":"smoking_area"},"geometry":{"type":"Point","coordinates":[101.7137359,3.1629087]},"id":"node/12640131194"},{"type":"Feature","properties":{"@id":"node/12640357420","amenity":"parking_entrance"},"geometry":{"type":"Point","coordinates":[101.7132394,3.1633255]},"id":"node/12640357420"},{"type":"Feature","properties":{"@id":"node/12640357424","amenity":"cafe","name":"Petite Paris"},"geometry":{"type":"Point","coordinates":[101.7144348,3.1630991]},"id":"node/12640357424"},{"type":"Feature","properties":{"@id":"node/12640357426","amenity":"taxi"},"geometry":{"type":"Point","coordinates":[101.713736,3.1632542]},"id":"node/12640357426"},{"type":"Feature","properties":{"@id":"node/12640357431","amenity":"parking_entrance"},"geometry":{"type":"Point","coordinates":[101.7136271,3.1631715]},"id":"node/12640357431"},{"type":"Feature","properties":{"@id":"node/12640357432","amenity":"parking"},"geometry":{"type":"Point","coordinates":[101.7134336,3.1637122]},"id":"node/12640357432"},{"type":"Feature","properties":{"@id":"node/12641035245","addr:housenumber":"1088","addr:street":"Jalan 17/29","amenity":"pharmacy","healthcare":"pharmacy","name":"Alpro Pharmacy","name:zh":"大专药剂"},"geometry":{"type":"Point","coordinates":[101.6353577,3.129332]},"id":"node/12641035245"},{"type":"Feature","properties":{"@id":"node/12641262038","addr:city":"Petaling Jaya","addr:housenumber":"3A","addr:postcode":"46400","addr:street":"Jalan 17/45","amenity":"restaurant","check_date":"2025-03-07","cuisine":"chinese","diet:vegetarian":"only","level":"1","name":"Cropitiam","name:zh":"大自然咖啡室","operator":"Cropitiam PLT","phone":"+601121874088"},"geometry":{"type":"Point","coordinates":[101.629732,3.1187815]},"id":"node/12641262038"},{"type":"Feature","properties":{"@id":"node/12641298220","addr:city":"Petaling Jaya","addr:housenumber":"64","addr:postcode":"46000","addr:street":"Jalan 1/19","check_date":"2025-03-07","name":"Syarikat Sin Wah","name:zh":"新华手艺裁缝用品商","phone":"+60 3-7782 6989","shop":"craft"},"geometry":{"type":"Point","coordinates":[101.646852,3.0866175]},"id":"node/12641298220"},{"type":"Feature","properties":{"@id":"node/12641822527","addr:city":"Damansara Jaya, Petaling Jaya, Selangor","addr:housenumber":"19","addr:postcode":"47400","addr:street":"Jalan SS 22/19","amenity":"restaurant","cuisine":"malaysian","name":"Syed Abu Restaurant","opening_hours":"24/7","phone":"+6016-2160891"},"geometry":{"type":"Point","coordinates":[101.616261,3.1282459]},"id":"node/12641822527"},{"type":"Feature","properties":{"@id":"node/12641826710","artwork_type":"statue","name":"Perahu","tourism":"artwork"},"geometry":{"type":"Point","coordinates":[118.4760487,4.4231752]},"id":"node/12641826710"},{"type":"Feature","properties":{"@id":"node/12641883039","addr:city":"Petaling Jaya","addr:housenumber":"24","addr:postcode":"47301","addr:street":"Jalan SS 6/8","amenity":"restaurant","cuisine":"malaysian","name":"Azlin's Kitchen","phone":"+6013-9746881"},"geometry":{"type":"Point","coordinates":[101.5986198,3.1059188]},"id":"node/12641883039"},{"type":"Feature","properties":{"@id":"node/12642258833","addr:city":"Johor Bahru","addr:housenumber":"1-01","addr:postcode":"81100","addr:street":"Jln Setia 3/13, Taman Setia Indah,","amenity":"cafe","cuisine":"cake;coffee_shop;western;pasta","internet_access":"yes","internet_access:fee":"no","name":"Meow Catfe by Eleven Charms","opening_hours":"Mo-Su 10:00-20:00","phone":"+60127749792"},"geometry":{"type":"Point","coordinates":[103.7580399,1.5761627]},"id":"node/12642258833"},{"type":"Feature","properties":{"@id":"node/12642885792","amenity":"parking_entrance"},"geometry":{"type":"Point","coordinates":[102.2412072,6.1410914]},"id":"node/12642885792"},{"type":"Feature","properties":{"@id":"node/12642885794","amenity":"parking_entrance"},"geometry":{"type":"Point","coordinates":[102.2414641,6.141441]},"id":"node/12642885794"},{"type":"Feature","properties":{"@id":"node/12642885810","amenity":"parking_entrance"},"geometry":{"type":"Point","coordinates":[102.2421598,6.1414701]},"id":"node/12642885810"},{"type":"Feature","properties":{"@id":"node/12642885812","amenity":"community_centre","community_centre":"community_hall","name":"Dewan PPR Kota Bharu"},"geometry":{"type":"Point","coordinates":[102.2423281,6.1413445]},"id":"node/12642885812"},{"type":"Feature","properties":{"@id":"node/12644458996","amenity":"cafe","name":"Oh Café"},"geometry":{"type":"Point","coordinates":[101.681357,3.1856595]},"id":"node/12644458996"},{"type":"Feature","properties":{"@id":"node/12644459778","amenity":"bench"},"geometry":{"type":"Point","coordinates":[101.6936586,3.1690442]},"id":"node/12644459778"},{"type":"Feature","properties":{"@id":"node/12644491032","amenity":"restaurant","name":"OpenHouse","name:en":"OpenHouse","opening_hours":"11:30–15:00,18:00–23:00","phone":"+60321620888","website":"https://www.openhouse.my/"},"geometry":{"type":"Point","coordinates":[101.7169827,3.1506425]},"id":"node/12644491032"},{"type":"Feature","properties":{"@id":"node/12644495661","amenity":"restaurant","contact:facebook":"https://www.facebook.com/profile.php?id=100095617656008","cuisine":"western","name":"Blossom a Glassmansion","opening_hours":"Mo-Su 09:00-22:00","phone":"+60321106129"},"geometry":{"type":"Point","coordinates":[101.7181481,3.1463892]},"id":"node/12644495661"},{"type":"Feature","properties":{"@id":"node/12644497325","name":"Vintage mart","shop":"convenience"},"geometry":{"type":"Point","coordinates":[101.6813723,3.1858259]},"id":"node/12644497325"},{"type":"Feature","properties":{"@id":"node/12644499328","amenity":"kindergarten","facebook":"https://www.facebook.com/pages/Tadika-Elit/1680442025507124","name":"Elit Learning Centre","phone":"+60193227308"},"geometry":{"type":"Point","coordinates":[101.6758497,3.1989246]},"id":"node/12644499328"},{"type":"Feature","properties":{"@id":"node/12644499329","amenity":"restaurant","level":"0","name":"Doña Bakehouse","opening_hours":"Mo-Su 08:30-21:00","phone":"+60187828782","shop":"bakery","website":"https://donabakehouse.com/"},"geometry":{"type":"Point","coordinates":[101.7199123,3.1442509]},"id":"node/12644499329"},{"type":"Feature","properties":{"@id":"node/12644502695","brand":"GWM","brand:wikidata":"Q1117001","name":"GWM","official_name":"Great Wall Motor","opening_hours":"Mo-Su 09:00-18:00","phone":"+60362572915","shop":"car"},"geometry":{"type":"Point","coordinates":[101.6816051,3.186324]},"id":"node/12644502695"},{"type":"Feature","properties":{"@id":"node/12644511304","name":"Sun Veg","shop":"convenience"},"geometry":{"type":"Point","coordinates":[101.6825619,3.1815604]},"id":"node/12644511304"},{"type":"Feature","properties":{"@id":"node/12644534078","bus":"yes","fixme":"Not sure whether it is a taxi stand or bus stop. Please double check.","highway":"bus_stop","public_transport":"platform","shelter":"yes"},"geometry":{"type":"Point","coordinates":[101.7184753,3.1500123]},"id":"node/12644534078"},{"type":"Feature","properties":{"@id":"node/12644552762","addr:housenumber":"22 & 24","amenity":"restaurant","cuisine":"chinese","name":"Dong Chao Yuan","name:zh":"东潮苑"},"geometry":{"type":"Point","coordinates":[101.718368,3.1459242]},"id":"node/12644552762"},{"type":"Feature","properties":{"@id":"node/12644552763","level":"1","name":"Health Land","shop":"massage"},"geometry":{"type":"Point","coordinates":[101.7183989,3.1460506]},"id":"node/12644552763"},{"type":"Feature","properties":{"@id":"node/12644671255","amenity":"bank","brand":"AmBank","brand:wikidata":"Q4132947","name":"AmBank"},"geometry":{"type":"Point","coordinates":[101.6466005,3.1046792]},"id":"node/12644671255"},{"type":"Feature","properties":{"@id":"node/12644693956","addr:housenumber":"1","addr:street":"Jalan KLIA 2","check_date":"2025-03-08","name":"Heinemann","shop":"cosmetics","wheelchair":"yes"},"geometry":{"type":"Point","coordinates":[101.6859013,2.7424532]},"id":"node/12644693956"},{"type":"Feature","properties":{"@id":"node/12645228071","amenity":"restaurant","instagram":"https://www.instagram.com/annabellkl_/","level":"11","name":"Annabell KL","opening_hours":"Mo-Su 17:00-02:00","phone":"+601120501888"},"geometry":{"type":"Point","coordinates":[101.7198169,3.1443427]},"id":"node/12645228071"},{"type":"Feature","properties":{"@id":"node/12645356455","brand":"CU","brand:wikidata":"Q12580836","name":"CU","shop":"convenience"},"geometry":{"type":"Point","coordinates":[100.3049857,5.4492626]},"id":"node/12645356455"},