{"type":"FeatureCollection","features":[{"type":"Feature","properties":{"@id":"node/13020034042","amenity":"cafe","cuisine":"coffee_shop","name":"Kopi Saigon"},"geometry":{"type":"Point","coordinates":[103.3933396,3.4915358]},"id":"node/13020034042"},{"type":"Feature","properties":{"@id":"node/13020146080","amenity":"restaurant","name":"Warung Singgang Budu"},"geometry":{"type":"Point","coordinates":[103.3844189,3.5424203]},"id":"node/13020146080"},{"type":"Feature","properties":{"@id":"node/13020271516","bus":"yes","highway":"bus_stop","public_transport":"platform"},"geometry":{"type":"Point","coordinates":[103.394715,3.5114529]},"id":"node/13020271516"},{"type":"Feature","properties":{"@id":"node/13020354371","name":"Kun Kun Riverside Park","tourism":"camp_site"},"geometry":{"type":"Point","coordinates":[117.1948448,5.4892214]},"id":"node/13020354371"},{"type":"Feature","properties":{"@id":"node/13020387017","addr:housenumber":"5","addr:street":"Jalan Masjid Abdullah","amenity":"restaurant","name":"Warung Jam 3"},"geometry":{"type":"Point","coordinates":[103.3882165,3.4932323]},"id":"node/13020387017"},{"type":"Feature","properties":{"@id":"node/13020387018","addr:housenumber":"8","addr:street":"Jalan Masjid Abdullah","amenity":"cafe","name":"Matcha & Dessert"},"geometry":{"type":"Point","coordinates":[103.3882824,3.4933767]},"id":"node/13020387018"},{"type":"Feature","properties":{"@id":"node/13020387024","addr:housenumber":"1","addr:street":"Jalan Masjid Abdullah","shop":"car_repair"},"geometry":{"type":"Point","coordinates":[103.3881419,3.4930406]},"id":"node/13020387024"},{"type":"Feature","properties":{"@id":"node/13020387028","addr:housenumber":"6","addr:street":"Jalan Masjid Abdullah","amenity":"cafe","name":"Aok Kawan & Kopi"},"geometry":{"type":"Point","coordinates":[103.3882388,3.4932813]},"id":"node/13020387028"},{"type":"Feature","properties":{"@id":"node/13020387031","addr:housenumber":"10","addr:street":"Jalan Masjid Abdullah","name":"Fathia Hair Salon","shop":"hairdresser"},"geometry":{"type":"Point","coordinates":[103.3883182,3.4934677]},"id":"node/13020387031"},{"type":"Feature","properties":{"@id":"node/13020387033","addr:housenumber":"7","addr:street":"Jalan Masjid Abdullah","shop":"convenience"},"geometry":{"type":"Point","coordinates":[103.3882591,3.4933259]},"id":"node/13020387033"},{"type":"Feature","properties":{"@id":"node/13020387039","addr:housenumber":"9","addr:street":"Jalan Masjid Abdullah","amenity":"restaurant","name":"MixFood"},"geometry":{"type":"Point","coordinates":[103.3883036,3.4934175]},"id":"node/13020387039"},{"type":"Feature","properties":{"@id":"node/13020564274","amenity":"restaurant","name":"Mee Celup Kak Mawar"},"geometry":{"type":"Point","coordinates":[102.2219704,6.1374198]},"id":"node/13020564274"},{"type":"Feature","properties":{"@id":"node/13020775593","bus":"yes","highway":"bus_stop","public_transport":"platform"},"geometry":{"type":"Point","coordinates":[103.3940399,3.5123616]},"id":"node/13020775593"},{"type":"Feature","properties":{"@id":"node/13020798816","amenity":"shelter","shelter_type":"gazebo"},"geometry":{"type":"Point","coordinates":[103.3936451,3.5081459]},"id":"node/13020798816"},{"type":"Feature","properties":{"@id":"node/13020902681","name":"BME Laundry","opening_hours":"Mo-Su 00:00-12:00","shop":"laundry"},"geometry":{"type":"Point","coordinates":[111.4585517,1.2353561]},"id":"node/13020902681"},{"type":"Feature","properties":{"@id":"node/13020902728","amenity":"restaurant","name":"Resipi Teratak","opening_hours":"Mo-Su 09:00-21:00"},"geometry":{"type":"Point","coordinates":[111.4586524,1.2349715]},"id":"node/13020902728"},{"type":"Feature","properties":{"@id":"node/13020906992","amenity":"restaurant","name":"Yeo Jia Garden","opening_hours":"Mo-Su 06:30-02:30"},"geometry":{"type":"Point","coordinates":[111.4591051,1.2350807]},"id":"node/13020906992"},{"type":"Feature","properties":{"@id":"node/13020914205","amenity":"clinic","healthcare":"clinic","name":"Dr. Lau's Medical Clinic"},"geometry":{"type":"Point","coordinates":[111.4590467,1.2353217]},"id":"node/13020914205"},{"type":"Feature","properties":{"@id":"node/13020915617","name":"Kindness Outlet","opening_hours":"Mo-Th, Sa, Su 10:00-17:30","shop":"clothes"},"geometry":{"type":"Point","coordinates":[111.4585037,1.235128]},"id":"node/13020915617"},{"type":"Feature","properties":{"@id":"node/13020918701","name":"BME Coldstorage","shop":"department_store"},"geometry":{"type":"Point","coordinates":[111.4588454,1.2346896]},"id":"node/13020918701"},{"type":"Feature","properties":{"@id":"node/13020922341","amenity":"pharmacy","healthcare":"pharmacy","name":"My Health"},"geometry":{"type":"Point","coordinates":[111.4591158,1.2353208]},"id":"node/13020922341"},{"type":"Feature","properties":{"@id":"node/13020922558","name":"BME Hotel","tourism":"hotel"},"geometry":{"type":"Point","coordinates":[111.4584678,1.2352722]},"id":"node/13020922558"},{"type":"Feature","properties":{"@id":"node/13020931389","amenity":"restaurant","name":"Pak Long Cafe","opening_hours":"Mo-Sa 06:30-17:00"},"geometry":{"type":"Point","coordinates":[111.4590682,1.2347981]},"id":"node/13020931389"},{"type":"Feature","properties":{"@id":"node/13020933631","name":"Plaza Simanggang","shop":"mall"},"geometry":{"type":"Point","coordinates":[111.4580981,1.2359772]},"id":"node/13020933631"},{"type":"Feature","properties":{"@id":"node/13020943409","name":"Lah P","shop":"car_parts"},"geometry":{"type":"Point","coordinates":[103.3959176,3.5085818]},"id":"node/13020943409"},{"type":"Feature","properties":{"@id":"node/13020943415","name":"M. Yusof Motorsport","shop":"motorcycle_repair"},"geometry":{"type":"Point","coordinates":[103.3959334,3.5084992]},"id":"node/13020943415"},{"type":"Feature","properties":{"@id":"node/13020943425","name":"Epy Barber Shop","shop":"hairdresser"},"geometry":{"type":"Point","coordinates":[103.3959357,3.5085151]},"id":"node/13020943425"},{"type":"Feature","properties":{"@id":"node/13020943426","amenity":"cafe","cuisine":"coffee_shop","name":"Kopiqal"},"geometry":{"type":"Point","coordinates":[103.3959302,3.5085555]},"id":"node/13020943426"},{"type":"Feature","properties":{"@id":"node/13020943428","amenity":"recycling","recycling_type":"centre"},"geometry":{"type":"Point","coordinates":[103.3958658,3.5095302]},"id":"node/13020943428"},{"type":"Feature","properties":{"@id":"node/13020943429","amenity":"place_of_worship","religion":"muslim"},"geometry":{"type":"Point","coordinates":[103.3972474,3.5101612]},"id":"node/13020943429"},{"type":"Feature","properties":{"@id":"node/13020943433","name":"Restu Ilahi","shop":"greengrocer"},"geometry":{"type":"Point","coordinates":[103.3959106,3.5086171]},"id":"node/13020943433"},{"type":"Feature","properties":{"@id":"node/13020949968","name":"Chia Trading","shop":"hardware"},"geometry":{"type":"Point","coordinates":[111.4588931,1.2353198]},"id":"node/13020949968"},{"type":"Feature","properties":{"@id":"node/13021458982","amenity":"place_of_worship","name":"Hooi En Fat Yean Bedong Branch","name:zh":"慧音法苑美农分苑","religion":"buddhist"},"geometry":{"type":"Point","coordinates":[100.5064108,5.7309874]},"id":"node/13021458982"},{"type":"Feature","properties":{"@id":"node/13021586170","amenity":"place_of_worship","religion":"muslim"},"geometry":{"type":"Point","coordinates":[100.5104699,5.7397438]},"id":"node/13021586170"},{"type":"Feature","properties":{"@id":"node/13022077101","addr:street":"Lebuh Melayu","amenity":"cafe","cuisine":"coffee_shop","internet_access":"wlan","name":"Heim","outdoor_seating":"no"},"geometry":{"type":"Point","coordinates":[100.3350925,5.4136764]},"id":"node/13022077101"},{"type":"Feature","properties":{"@id":"node/13022121814","amenity":"cafe","name":"MyWarong"},"geometry":{"type":"Point","coordinates":[103.383222,3.5427386]},"id":"node/13022121814"},{"type":"Feature","properties":{"@id":"node/13022180176","addr:housenumber":"2","addr:street":"Jalan Ahmad","name":"Kwong Siew Vui Koon","shop":"electrical"},"geometry":{"type":"Point","coordinates":[103.3923025,3.4927424]},"id":"node/13022180176"},{"type":"Feature","properties":{"@id":"node/13022180179","addr:housenumber":"30","addr:street":"Jalan Teng Quee","name":"Pajak Gadai Sin On","shop":"pawnbroker"},"geometry":{"type":"Point","coordinates":[103.3927977,3.4917785]},"id":"node/13022180179"},{"type":"Feature","properties":{"@id":"node/13022180180","addr:housenumber":"3","addr:street":"Jalan Ahmad","name":"Chui Lai","shop":"tailor"},"geometry":{"type":"Point","coordinates":[103.3923328,3.4927226]},"id":"node/13022180180"},{"type":"Feature","properties":{"@id":"node/13022180182","addr:housenumber":"99","amenity":"restaurant","name":"Murtabak Mawar"},"geometry":{"type":"Point","coordinates":[103.393431,3.4912687]},"id":"node/13022180182"},{"type":"Feature","properties":{"@id":"node/13022180183","addr:housenumber":"4","addr:street":"Jalan Ahmad","amenity":"restaurant","name":"Yee Mooi Kee"},"geometry":{"type":"Point","coordinates":[103.3923918,3.4926893]},"id":"node/13022180183"},{"type":"Feature","properties":{"@id":"node/13022180184","addr:housenumber":"6","addr:street":"Jalan Ahmad","amenity":"place_of_worship","name":"Rumah Berhala Tien Hou","religion":"taoist"},"geometry":{"type":"Point","coordinates":[103.3924837,3.4926428]},"id":"node/13022180184"},{"type":"Feature","properties":{"@id":"node/13022507463","amenity":"bank","atm":"yes","branch":"Sri Aman","brand":"Agrobank","brand:wikidata":"Q4694216","name":"Agrobank"},"geometry":{"type":"Point","coordinates":[111.4567022,1.2389958]},"id":"node/13022507463"},{"type":"Feature","properties":{"@id":"node/13022507464","amenity":"food_court","name":"Tamu Food Court"},"geometry":{"type":"Point","coordinates":[111.4567344,1.2388618]},"id":"node/13022507464"},{"type":"Feature","properties":{"@id":"node/13022507465","agrarian":"fertiliser;baja;racun;agricultural_machinery;alat_pertanian","name":"Sinar Seri Kesang (SSK) Enterprise Sdn. Bhd.","shop":"agrarian"},"geometry":{"type":"Point","coordinates":[111.4567907,1.2386526]},"id":"node/13022507465"},{"type":"Feature","properties":{"@id":"node/13022507466","name":"My Music","shop":"musical_instrument"},"geometry":{"type":"Point","coordinates":[111.4568282,1.2385909]},"id":"node/13022507466"},{"type":"Feature","properties":{"@id":"node/13022507467","name":"Hiew Trading","shop":"furniture"},"geometry":{"type":"Point","coordinates":[111.4568604,1.2385453]},"id":"node/13022507467"},{"type":"Feature","properties":{"@id":"node/13022507468","name":"Singer (Sri Aman)","shop":"electronics"},"geometry":{"type":"Point","coordinates":[111.4568846,1.2385158]},"id":"node/13022507468"},{"type":"Feature","properties":{"@id":"node/13022507469","name":"Eletrico Enterprise","shop":"electronics"},"geometry":{"type":"Point","coordinates":[111.4569007,1.2384783]},"id":"node/13022507469"},{"type":"Feature","properties":{"@id":"node/13022507470","name":"HF Furniture","shop":"furniture"},"geometry":{"type":"Point","coordinates":[111.4569409,1.2384166]},"id":"node/13022507470"},{"type":"Feature","properties":{"@id":"node/13022507471","name":"Family W","shop":"supermarket"},"geometry":{"type":"Point","coordinates":[111.4571279,1.2381009]},"id":"node/13022507471"},{"type":"Feature","properties":{"@id":"node/13022507472","amenity":"restaurant","name":"DV Chicken"},"geometry":{"type":"Point","coordinates":[111.457539,1.2379634]},"id":"node/13022507472"},{"type":"Feature","properties":{"@id":"node/13022507473","name":"Viva Hotel","tourism":"hotel"},"geometry":{"type":"Point","coordinates":[111.4572869,1.2374325]},"id":"node/13022507473"},{"type":"Feature","properties":{"@id":"node/13022507474","branch":"Sri Aman Town","brand":"MR.DIY","brand:wikidata":"Q105044323","name":"MR.DIY","opening_hours":"Mo-Su 09:00-21:00","shop":"doityourself"},"geometry":{"type":"Point","coordinates":[111.457126,1.2375129]},"id":"node/13022507474"},{"type":"Feature","properties":{"@id":"node/13022507475","clothes":"wedding","name":"Princess Bridal","shop":"clothes"},"geometry":{"type":"Point","coordinates":[111.4569033,1.2376416]},"id":"node/13022507475"},{"type":"Feature","properties":{"@id":"node/13022507476","name":"Doremart Sri Aman","shop":"supermarket"},"geometry":{"type":"Point","coordinates":[111.456552,1.2379795]},"id":"node/13022507476"},{"type":"Feature","properties":{"@id":"node/13022507477","amenity":"food_court","name":"Garden Food Court"},"geometry":{"type":"Point","coordinates":[111.4562784,1.2383952]},"id":"node/13022507477"},{"type":"Feature","properties":{"@id":"node/13022507478","name":"A.K. Hair Studio","shop":"hairdresser"},"geometry":{"type":"Point","coordinates":[111.4562489,1.2384702]},"id":"node/13022507478"},{"type":"Feature","properties":{"@id":"node/13022507480","name":"Abbas Furniture","shop":"furniture"},"geometry":{"type":"Point","coordinates":[111.4561828,1.2386474]},"id":"node/13022507480"},{"type":"Feature","properties":{"@id":"node/13022507481","amenity":"restaurant","name":"Eden Restaurant"},"geometry":{"type":"Point","coordinates":[111.4561616,1.2387305]},"id":"node/13022507481"},{"type":"Feature","properties":{"@id":"node/13022507482","amenity":"fast_food","cuisine":"burger;chicken","name":"Sugar Bun Sri Aman","opening_hours":"Mo-Su 10:00-22:00"},"geometry":{"type":"Point","coordinates":[111.4572375,1.2374603]},"id":"node/13022507482"},{"type":"Feature","properties":{"@id":"node/13022507483","amenity":"food_court","name":"Viva Food Court","opening_hours":"24/7"},"geometry":{"type":"Point","coordinates":[111.4573242,1.2374302]},"id":"node/13022507483"},{"type":"Feature","properties":{"@id":"node/13022507484","name":"Phonework Mobile Centre","opening_hours":"Mo-Su 08:30-20:30","shop":"mobile_phone"},"geometry":{"type":"Point","coordinates":[111.4570234,1.237577]},"id":"node/13022507484"},{"type":"Feature","properties":{"@id":"node/13022507485","amenity":"pharmacy","branch":"Plaza Simanggang","brand":"Watsons","brand:wikidata":"Q7974785","healthcare":"pharmacy","name":"Watsons"},"geometry":{"type":"Point","coordinates":[111.4580816,1.2360821]},"id":"node/13022507485"},{"type":"Feature","properties":{"@id":"node/13022507486","name":"Scissors Edge","shop":"hairdresser"},"geometry":{"type":"Point","coordinates":[111.4582497,1.2361546]},"id":"node/13022507486"},{"type":"Feature","properties":{"@id":"node/13022507487","name":"Mag's Beauty Enterprise","shop":"beauty"},"geometry":{"type":"Point","coordinates":[111.4579878,1.2361652]},"id":"node/13022507487"},{"type":"Feature","properties":{"@id":"node/13022507488","name":"3R Borneo Fragrance By Goretti","shop":"perfumery"},"geometry":{"type":"Point","coordinates":[111.4580957,1.2364377]},"id":"node/13022507488"},{"type":"Feature","properties":{"@id":"node/13022649766","amenity":"bank","branch":"Sri Aman","brand":"Bank Rakyat","brand:wikidata":"Q4855964","name":"Bank Rakyat","operator":"Bank Rakyat Cawangan Sri Aman"},"geometry":{"type":"Point","coordinates":[111.4633693,1.2345575]},"id":"node/13022649766"},{"type":"Feature","properties":{"@id":"node/13022672229","amenity":"dentist","healthcare":"dentist","name":"Dr. Roger Lau Dental Surgery"},"geometry":{"type":"Point","coordinates":[111.4636002,1.2350791]},"id":"node/13022672229"},{"type":"Feature","properties":{"@id":"node/13022680427","name":"Uncle Gud Kopitiam","shop":"coffee"},"geometry":{"type":"Point","coordinates":[111.4634197,1.2344903]},"id":"node/13022680427"},{"type":"Feature","properties":{"@id":"node/13022688938","amenity":"bank","branch":"Sri Aman","brand":"Public Bank","brand:en":"Public Bank","brand:wikidata":"Q3046561","brand:zh":"大众银行","name":"Public Bank","name:en":"Public Bank","name:zh":"大众银行"},"geometry":{"type":"Point","coordinates":[111.4637487,1.2352993]},"id":"node/13022688938"},{"type":"Feature","properties":{"@id":"node/13022691134","amenity":"food_court","name":"MDSA Food Court (Old Bus Terminal)"},"geometry":{"type":"Point","coordinates":[111.4630585,1.235003]},"id":"node/13022691134"},{"type":"Feature","properties":{"@id":"node/13022701996","name":"East Court Cafe","shop":"coffee"},"geometry":{"type":"Point","coordinates":[111.4636421,1.2355023]},"id":"node/13022701996"},{"type":"Feature","properties":{"@id":"node/13022717865","name":"100% Discount Store (Sri Aman)","shop":"hardware"},"geometry":{"type":"Point","coordinates":[111.4636536,1.235181]},"id":"node/13022717865"},{"type":"Feature","properties":{"@id":"node/13022719221","name":"Sin Lian Fatt","name:zh":"新聯發百貨公司","shop":"department_store"},"geometry":{"type":"Point","coordinates":[111.4634387,1.2353467]},"id":"node/13022719221"},{"type":"Feature","properties":{"@id":"node/13022728016","amenity":"bank","branch":"(BSN) Sri Aman","brand":"Bank Simpanan Nasional","brand:wikidata":"Q4855972","name":"Bank Simpanan Nasional","short_name":"BSN"},"geometry":{"type":"Point","coordinates":[111.4634933,1.23505]},"id":"node/13022728016"},{"type":"Feature","properties":{"@id":"node/13022729593","amenity":"clinic","healthcare":"clinic","name":"Klinik Dr. Guang Seng Wu"},"geometry":{"type":"Point","coordinates":[111.4635696,1.235128]},"id":"node/13022729593"},{"type":"Feature","properties":{"@id":"node/13023053416","addr:city":"Subang Jaya","addr:housenumber":"F1 24 & 25","addr:postcode":"47500","addr:street":"Aeon Big, Jalan Kemajuan, SS16","amenity":"restaurant","cuisine":"south_indian;indian","name":"India Gate Restaurant","opening_hours":"Mo-Su 11:00-23:00"},"geometry":{"type":"Point","coordinates":[101.5875708,3.0824259]},"id":"node/13023053416"},{"type":"Feature","properties":{"@id":"node/13023059898","addr:city":"Taman Sri Ramapi","addr:housenumber":"8-1","addr:postcode":"53300","addr:street":"Jalan 42/26","female":"yes","name":"Fafa Salon Setapak KL Branch","opening_hours":"Mo-Su 11:00-20:00","operator":"11am - 8pm . Contact us 0178460827","phone":"+60178460827","shop":"hairdresser"},"geometry":{"type":"Point","coordinates":[101.7323432,3.193841]},"id":"node/13023059898"},{"type":"Feature","properties":{"@id":"node/13023115170","addr:city":"Subang Jaya","addr:housenumber":"43","addr:postcode":"47500","addr:street":"Jalan SS 15/4E","amenity":"restaurant","cuisine":"chinese","name":"Gao Ren Guan","name:zh":"高人馆"},"geometry":{"type":"Point","coordinates":[101.5878691,3.0772319]},"id":"node/13023115170"},{"type":"Feature","properties":{"@id":"node/13023115171","addr:city":"Subang Jaya","addr:housenumber":"45","addr:postcode":"47500","addr:street":"Jalan SS 15/4E","amenity":"bar","name":"Beer Mad Bar"},"geometry":{"type":"Point","coordinates":[101.5879813,3.077308]},"id":"node/13023115171"},{"type":"Feature","properties":{"@id":"node/13023115172","addr:city":"Subang Jaya","addr:housenumber":"41","addr:postcode":"47500","addr:street":"Jalan SS 15/4E","amenity":"clinic","healthcare":"clinic","healthcare:speciality":"general","name":"Klinik Keluarga Lee"},"geometry":{"type":"Point","coordinates":[101.5878084,3.0771848]},"id":"node/13023115172"},{"type":"Feature","properties":{"@id":"node/13023115173","name":"Pusat Akuarium Batu Karang Laut","pet":"fish","shop":"pet"},"geometry":{"type":"Point","coordinates":[101.5877526,3.0771436]},"id":"node/13023115173"},{"type":"Feature","properties":{"@id":"node/13023115174","addr:city":"Subang Jaya","addr:housenumber":"37","addr:postcode":"47500","addr:street":"Jalan SS 15/4E","amenity":"pub","name":"Harry's Place"},"geometry":{"type":"Point","coordinates":[101.5876803,3.0771075]},"id":"node/13023115174"},{"type":"Feature","properties":{"@id":"node/13023115175","addr:city":"Subang Jaya","addr:housenumber":"35","addr:postcode":"47500","addr:street":"Jalan SS 15/4E","name":"Yippies Flowers & Trading","shop":"florist"},"geometry":{"type":"Point","coordinates":[101.5876147,3.0770458]},"id":"node/13023115175"},{"type":"Feature","properties":{"@id":"node/13023115176","addr:city":"Subang Jaya","addr:housenumber":"35","addr:postcode":"47500","addr:street":"Jalan SS 15/4E","female":"yes","male":"yes","name":"X Cut Hair and Beauty Studio","shop":"hairdresser"},"geometry":{"type":"Point","coordinates":[101.5876095,3.0771124]},"id":"node/13023115176"},{"type":"Feature","properties":{"@id":"node/13023115177","addr:city":"Subang Jaya","addr:housenumber":"29","addr:postcode":"47500","addr:street":"Jalan SS 15/4E","amenity":"restaurant","cuisine":"chinese;noodle","name":"Eng Teck Hokkien Mee","name:zh":"新青山福建面"},"geometry":{"type":"Point","coordinates":[101.5874329,3.0771053]},"id":"node/13023115177"},{"type":"Feature","properties":{"@id":"node/13023115178","addr:city":"Subang Jaya","addr:housenumber":"29","addr:postcode":"47500","addr:street":"Jalan SS 15/4E","name":"DIY Hardware Loong City Hardware","shop":"hardware"},"geometry":{"type":"Point","coordinates":[101.5872512,3.0771126]},"id":"node/13023115178"},{"type":"Feature","properties":{"@id":"node/13023115179","addr:city":"Subang Jaya","addr:housenumber":"27","addr:postcode":"47500","addr:street":"Jalan SS 15/4E","amenity":"restaurant","diet:halal":"yes","name":"Nasi Kandar Restoran Alisha Maju"},"geometry":{"type":"Point","coordinates":[101.5873148,3.0771198]},"id":"node/13023115179"},{"type":"Feature","properties":{"@id":"node/13023361050","addr:city":"Subang Jaya","addr:housenumber":"95","addr:postcode":"47500","addr:street":"Jalan SS 17/2","amenity":"recycling","name":"Pusat Kitar Semula SS17 Subang Jaya","recycling_type":"centre"},"geometry":{"type":"Point","coordinates":[101.5854388,3.0783314]},"id":"node/13023361050"},{"type":"Feature","properties":{"@id":"node/13023361678","addr:city":"Subang Jaya","addr:housenumber":"3","addr:postcode":"47500","addr:street":"Jalan SS 15/4E","amenity":"restaurant","cuisine":"chinese;noodle","name":"Northern Village Noodles"},"geometry":{"type":"Point","coordinates":[101.5865938,3.0771281]},"id":"node/13023361678"},{"type":"Feature","properties":{"@id":"node/13023361679","addr:city":"Subang Jaya","addr:housenumber":"7","addr:postcode":"47500","addr:street":"Jalan SS 15/4E","amenity":"restaurant","cuisine":"chinese","name":"ah Muk Cha Chaan Teng"},"geometry":{"type":"Point","coordinates":[101.586716,3.0771315]},"id":"node/13023361679"},{"type":"Feature","properties":{"@id":"node/13023361680","addr:city":"Subang Jaya","addr:housenumber":"5","addr:postcode":"47500","addr:street":"Jalan SS 15/4E","amenity":"clinic","healthcare":"clinic","name":"Klinik Medilove SS15 Subang Jaya","name:zh":"仁爱医务所"},"geometry":{"type":"Point","coordinates":[101.5866535,3.07713]},"id":"node/13023361680"},{"type":"Feature","properties":{"@id":"node/13023361682","amenity":"restaurant","cuisine":"chinese;noodle","name":"Omega Pork Noodle"},"geometry":{"type":"Point","coordinates":[101.5865126,3.0774551]},"id":"node/13023361682"},{"type":"Feature","properties":{"@id":"node/13023361684","amenity":"restaurant","cuisine":"korean;dessert;ice_cream","name":"Hanbing Korean Dessert Cafe (Subang Jaya)"},"geometry":{"type":"Point","coordinates":[101.5867757,3.0774909]},"id":"node/13023361684"},{"type":"Feature","properties":{"@id":"node/13023361685","amenity":"restaurant","cuisine":"chinese;dim_sum;cantonese","diet:halal":"yes","name":"Canton Boy @ SS15 Courtyard"},"geometry":{"type":"Point","coordinates":[101.5864729,3.0780411]},"id":"node/13023361685"},{"type":"Feature","properties":{"@id":"node/13023361686","amenity":"cafe","cuisine":"coffee_shop","name":"Kairos Specialty Coffee @ SS15 Courtyard"},"geometry":{"type":"Point","coordinates":[101.5866365,3.0779108]},"id":"node/13023361686"},{"type":"Feature","properties":{"@id":"node/13023361687","amenity":"restaurant","cuisine":"malaysian","name":"nasi lemak shop."},"geometry":{"type":"Point","coordinates":[101.5866893,3.077992]},"id":"node/13023361687"},{"type":"Feature","properties":{"@id":"node/13023361688","amenity":"recycling","name":"Tzu Chi Recycling Centre SS15 (3rd Sunday of every month)","recycling_type":"centre"},"geometry":{"type":"Point","coordinates":[101.5864166,3.0783313]},"id":"node/13023361688"},{"type":"Feature","properties":{"@id":"node/13023568325","name":"The Core Hotel","tourism":"hotel"},"geometry":{"type":"Point","coordinates":[101.5879029,3.077319]},"id":"node/13023568325"},{"type":"Feature","properties":{"@id":"node/13023907807","amenity":"shelter","shelter_type":"gazebo"},"geometry":{"type":"Point","coordinates":[103.3937046,3.5077133]},"id":"node/13023907807"},{"type":"Feature","properties":{"@id":"node/13025586476","name":"Lov3uu Homemade Nyonya Kuih","shop":"pastry"},"geometry":{"type":"Point","coordinates":[101.5892324,3.0767682]},"id":"node/13025586476"},{"type":"Feature","properties":{"@id":"node/13025636368","amenity":"cafe","name":"Naj & Belle Cafe SS15 Courtyard"},"geometry":{"type":"Point","coordinates":[101.5864704,3.0778181]},"id":"node/13025636368"},{"type":"Feature","properties":{"@id":"node/13025683116","name":"MR.DIY","shop":"hardware"},"geometry":{"type":"Point","coordinates":[101.5866108,3.0775319]},"id":"node/13025683116"},{"type":"Feature","properties":{"@id":"node/13025684105","amenity":"pharmacy","healthcare":"pharmacy","name":"Aeon Wellness AEON BiG Subang Jaya AEON Wellness Subang Jaya"},"geometry":{"type":"Point","coordinates":[101.5879902,3.0829034]},"id":"node/13025684105"},{"type":"Feature","properties":{"@id":"node/13025685038","name":"Village Grocer @ Subang Parade","shop":"supermarket"},"geometry":{"type":"Point","coordinates":[101.5859327,3.0827758]},"id":"node/13025685038"},{"type":"Feature","properties":{"@id":"node/13025686480","amenity":"post_office","name":"Pos Malaysia AEON BiG Subang Jaya","operator":"Pos Malaysia","operator:wikidata":"Q6112623"},"geometry":{"type":"Point","coordinates":[101.5878699,3.0829618]},"id":"node/13025686480"},{"type":"Feature","properties":{"@id":"node/13025689417","name":"Strudel Bakery House@ SS15 Courtyard","shop":"bakery"},"geometry":{"type":"Point","coordinates":[101.5866549,3.0777936]},"id":"node/13025689417"},{"type":"Feature","properties":{"@id":"node/13025690386","amenity":"restaurant","cuisine":"japanese","name":"Rakuzen SS15 Courtyard"},"geometry":{"type":"Point","coordinates":[101.5864328,3.078207]},"id":"node/13025690386"},{"type":"Feature","properties":{"@id":"node/13025692512","name":"Best Denki @ Subang Parade","shop":"appliance"},"geometry":{"type":"Point","coordinates":[101.586097,3.0826528]},"id":"node/13025692512"},{"type":"Feature","properties":{"@id":"node/13025694835","name":"Book Xcess Village Grocer Subang Parade","shop":"books"},"geometry":{"type":"Point","coordinates":[101.5860381,3.0828032]},"id":"node/13025694835"},{"type":"Feature","properties":{"@id":"node/13025743064","amenity":"cafe","name":"Whole Yums by Wise Crafters"},"geometry":{"type":"Point","coordinates":[101.6007745,3.0818955]},"id":"node/13025743064"},{"type":"Feature","properties":{"@id":"node/13025743065","amenity":"cafe","name":"Dapur Rizq"},"geometry":{"type":"Point","coordinates":[101.600765,3.0819756]},"id":"node/13025743065"},{"type":"Feature","properties":{"@id":"node/13025780159","name":"Warung Kopi Asay","shop":"coffee"},"geometry":{"type":"Point","coordinates":[111.476465,1.2091451]},"id":"node/13025780159"},{"type":"Feature","properties":{"@id":"node/13025838148","name":"Kampung Sembau","place":"village","population":"100"},"geometry":{"type":"Point","coordinates":[111.4553399,1.2457222]},"id":"node/13025838148"},{"type":"Feature","properties":{"@id":"node/13025838188","amenity":"parking_entrance","parking":"underground"},"geometry":{"type":"Point","coordinates":[101.7036009,3.1430133]},"id":"node/13025838188"},{"type":"Feature","properties":{"@id":"node/13025853340","name":"Kampung Datuk","place":"village","population":"100"},"geometry":{"type":"Point","coordinates":[111.4583182,1.2433111]},"id":"node/13025853340"},{"type":"Feature","properties":{"@id":"node/13025854400","name":"Pruan C","place":"village","population":"100"},"geometry":{"type":"Point","coordinates":[111.4371329,1.260739]},"id":"node/13025854400"},{"type":"Feature","properties":{"@id":"node/13025858930","name":"Tanjung Rirang","place":"village","population":"100"},"geometry":{"type":"Point","coordinates":[111.422681,1.2656568]},"id":"node/13025858930"},{"type":"Feature","properties":{"@id":"node/13025860239","amenity":"parking_entrance","parking":"multi-storey"},"geometry":{"type":"Point","coordinates":[101.7043551,3.1433254]},"id":"node/13025860239"},{"type":"Feature","properties":{"@id":"node/13025861355","amenity":"restaurant","name":"511 Kolo Mee Cafe"},"geometry":{"type":"Point","coordinates":[111.4764439,1.2092117]},"id":"node/13025861355"},{"type":"Feature","properties":{"@id":"node/13025867134","name":"SK Gran Stubin","place":"village","population":"200"},"geometry":{"type":"Point","coordinates":[111.384134,1.2942884]},"id":"node/13025867134"},{"type":"Feature","properties":{"@id":"node/13025870762","name":"Kampung Antik Hilir","place":"village","population":"100"},"geometry":{"type":"Point","coordinates":[111.3160262,1.3232328]},"id":"node/13025870762"},{"type":"Feature","properties":{"@id":"node/13025873417","name":"Taman Alam Indah","place":"neighbourhood","population":"100"},"geometry":{"type":"Point","coordinates":[111.4528555,1.2450939]},"id":"node/13025873417"},{"type":"Feature","properties":{"@id":"node/13025873569","name":"Skait","place":"village","population":"200"},"geometry":{"type":"Point","coordinates":[111.3850407,1.2784037]},"id":"node/13025873569"},{"type":"Feature","properties":{"@id":"node/13025874179","name":"Pruan B","place":"village","population":"100"},"geometry":{"type":"Point","coordinates":[111.4396623,1.258842]},"id":"node/13025874179"},{"type":"Feature","properties":{"@id":"node/13025877427","name":"Pruan A","place":"village","population":"100"},"geometry":{"type":"Point","coordinates":[111.4388698,1.2578092]},"id":"node/13025877427"},{"type":"Feature","properties":{"@id":"node/13025877886","name":"Kampung Paputan Baru","place":"village","population":"100"},"geometry":{"type":"Point","coordinates":[111.425838,1.266315]},"id":"node/13025877886"},{"type":"Feature","properties":{"@id":"node/13025878010","name":"Kampung Terusan","place":"village","population":"150"},"geometry":{"type":"Point","coordinates":[111.4177734,1.2660352]},"id":"node/13025878010"},{"type":"Feature","properties":{"@id":"node/13025879890","name":"Skra Ulu","place":"village","population":"150"},"geometry":{"type":"Point","coordinates":[111.4320299,1.2626878]},"id":"node/13025879890"},{"type":"Feature","properties":{"@id":"node/13025881357","name":"Putat","place":"village","population":"150"},"geometry":{"type":"Point","coordinates":[111.42937,1.2639378]},"id":"node/13025881357"},{"type":"Feature","properties":{"@id":"node/13025882512","name":"Superme • SS15 Subang Jaya","shop":"mobile_phone"},"geometry":{"type":"Point","coordinates":[101.5886876,3.0761133]},"id":"node/13025882512"},{"type":"Feature","properties":{"@id":"node/13025882835","name":"Kampung Skra Ili","place":"village","population":"100"},"geometry":{"type":"Point","coordinates":[111.4238459,1.2656097]},"id":"node/13025882835"},{"type":"Feature","properties":{"@id":"node/13025888096","name":"Kampung Tanjung Beladin","place":"village","population":"100"},"geometry":{"type":"Point","coordinates":[111.4168174,1.2656667]},"id":"node/13025888096"},{"type":"Feature","properties":{"@id":"node/13025889754","name":"Kampung Gran Limu","place":"village","population":"150"},"geometry":{"type":"Point","coordinates":[111.3776699,1.2932113]},"id":"node/13025889754"},{"type":"Feature","properties":{"@id":"node/13025890685","name":"Junkong Balau","place":"village","population":"150"},"geometry":{"type":"Point","coordinates":[111.3074191,1.3248323]},"id":"node/13025890685"},{"type":"Feature","properties":{"@id":"node/13025890980","amenity":"restaurant","cuisine":"chinese","name":"Signature Noodle Noodle"},"geometry":{"type":"Point","coordinates":[101.5883401,3.0761788]},"id":"node/13025890980"},{"type":"Feature","properties":{"@id":"node/13025890982","amenity":"restaurant","cuisine":"seafood","name":"Shen Heong Seafood Restaurant"},"geometry":{"type":"Point","coordinates":[101.5875006,3.0759705]},"id":"node/13025890982"},{"type":"Feature","properties":{"@id":"node/13025891082","name":"RELIANT FRESH MARKET","shop":"greengrocer"},"geometry":{"type":"Point","coordinates":[101.5885583,3.0759862]},"id":"node/13025891082"},{"type":"Feature","properties":{"@id":"node/13025893211","name":"Kampung Gran E","place":"village","population":"100"},"geometry":{"type":"Point","coordinates":[111.3806795,1.2934798]},"id":"node/13025893211"},{"type":"Feature","properties":{"@id":"node/13025896871","name":"Kampung Bakong Ai Lingga","place":"village","population":"200"},"geometry":{"type":"Point","coordinates":[111.3088476,1.325641]},"id":"node/13025896871"},{"type":"Feature","properties":{"@id":"node/13025900144","name":"Kampung Gran C","place":"village","population":"200"},"geometry":{"type":"Point","coordinates":[111.3822179,1.2936791]},"id":"node/13025900144"},{"type":"Feature","properties":{"@id":"node/13025901671","name":"Kampung Melayu Pangkat","place":"village","population":"300"},"geometry":{"type":"Point","coordinates":[111.3800121,1.30257]},"id":"node/13025901671"},{"type":"Feature","properties":{"@id":"node/13025901675","name":"Tanjung Aboi Benam Batu","place":"village","population":"200"},"geometry":{"type":"Point","coordinates":[111.2114976,1.3826052]},"id":"node/13025901675"},{"type":"Feature","properties":{"@id":"node/13025927682","name":"Kampung Bakong","place":"village","population":"300"},"geometry":{"type":"Point","coordinates":[111.3042524,1.3269638]},"id":"node/13025927682"},{"type":"Feature","properties":{"@id":"node/13025933475","name":"Sunga, Lingga","place":"village","population":"100"},"geometry":{"type":"Point","coordinates":[111.2979709,1.3297716]},"id":"node/13025933475"},{"type":"Feature","properties":{"@id":"node/13025938213","amenity":"car_wash","automated":"no","name":"PUSAT KECANTIKAN KERETA SS15 (AE AUTO SPA)","self_service":"no"},"geometry":{"type":"Point","coordinates":[101.5884626,3.0759072]},"id":"node/13025938213"},{"type":"Feature","properties":{"@id":"node/13025940921","name":"Seduku","place":"town","population":"300"},"geometry":{"type":"Point","coordinates":[111.2253645,1.3901358]},"id":"node/13025940921"},{"type":"Feature","properties":{"@id":"node/13025945704","laundry_service":"yes","name":"Sin Li Laundry & Dry Cleaning","self_service":"no","shop":"laundry"},"geometry":{"type":"Point","coordinates":[101.5886055,3.0760127]},"id":"node/13025945704"},{"type":"Feature","properties":{"@id":"node/13025950012","name":"Ykm Niaga Enterprise","shop":"greengrocer"},"geometry":{"type":"Point","coordinates":[101.5886458,3.0759756]},"id":"node/13025950012"},{"type":"Feature","properties":{"@id":"node/13025956911","name":"Honor","shop":"mobile_phone"},"geometry":{"type":"Point","coordinates":[101.5886548,3.0760565]},"id":"node/13025956911"},{"type":"Feature","properties":{"@id":"node/13025972658","amenity":"cafe","cuisine":"coffee_shop","name":"Gigi Coffee"},"geometry":{"type":"Point","coordinates":[101.587432,3.0757475]},"id":"node/13025972658"},{"type":"Feature","properties":{"@id":"node/13026231977","name":"Camps & Apparels Corporation Sdn Bhd","shop":"yes"},"geometry":{"type":"Point","coordinates":[101.745623,3.1203077]},"id":"node/13026231977"},{"type":"Feature","properties":{"@id":"node/13026280931","amenity":"restaurant","cuisine":"asian;malaysian","diet:pork-free":"yes","name":"Restoran Gold Chilli"},"geometry":{"type":"Point","coordinates":[101.5867612,3.0744391]},"id":"node/13026280931"},{"type":"Feature","properties":{"@id":"node/13026280932","amenity":"restaurant","diet:halal":"yes","name":"Restoran Darussalam Subang Jaya"},"geometry":{"type":"Point","coordinates":[101.5867666,3.0743311]},"id":"node/13026280932"},{"type":"Feature","properties":{"@id":"node/13026280933","amenity":"dentist","healthcare":"dentist","name":"PosiTeeth Dental"},"geometry":{"type":"Point","coordinates":[101.586697,3.0750167]},"id":"node/13026280933"},{"type":"Feature","properties":{"@id":"node/13026280934","name":"Beacon Mart (SS15)","shop":"health_food"},"geometry":{"type":"Point","coordinates":[101.5869592,3.0747202]},"id":"node/13026280934"},{"type":"Feature","properties":{"@id":"node/13026280935","name":"Peak.KL","shop":"clothes"},"geometry":{"type":"Point","coordinates":[101.5869581,3.0748304]},"id":"node/13026280935"},{"type":"Feature","properties":{"@id":"node/13026280936","name":"J & J Sales & Services","shop":"books"},"geometry":{"type":"Point","coordinates":[101.5869653,3.0748827]},"id":"node/13026280936"},{"type":"Feature","properties":{"@id":"node/13026280937","branch":"SS15 Bulatan Jengka Store #1056","brand":"7-Eleven","brand:wikidata":"Q259340","name":"7-Eleven","shop":"convenience"},"geometry":{"type":"Point","coordinates":[101.5869271,3.0740362]},"id":"node/13026280937"},{"type":"Feature","properties":{"@id":"node/13026280938","name":"2nd Street Bundle Shop SS15","second_hand":"only","shop":"clothes"},"geometry":{"type":"Point","coordinates":[101.5868207,3.0740461]},"id":"node/13026280938"},{"type":"Feature","properties":{"@id":"node/13026286442","amenity":"restaurant","cuisine":"malaysian","name":"Ali, Muthu & Ah Hock"},"geometry":{"type":"Point","coordinates":[101.5865032,3.0764334]},"id":"node/13026286442"},{"type":"Feature","properties":{"@id":"node/13026286443","amenity":"restaurant","cuisine":"arab","diet:halal":"yes","name":"Restoran Al Shamiah • SS15"},"geometry":{"type":"Point","coordinates":[101.5865863,3.076445]},"id":"node/13026286443"},{"type":"Feature","properties":{"@id":"node/13026286445","amenity":"restaurant","cuisine":"barbecue;thai","name":"the pink elephant Thai BBQ & Steamboat (Subang Jaya Branch)"},"geometry":{"type":"Point","coordinates":[101.5866945,3.0764486]},"id":"node/13026286445"},{"type":"Feature","properties":{"@id":"node/13026286447","amenity":"restaurant","name":"SHI GUANG Kopitiam"},"geometry":{"type":"Point","coordinates":[101.5867693,3.0766885]},"id":"node/13026286447"},{"type":"Feature","properties":{"@id":"node/13026286448","amenity":"restaurant","name":"Moonalisa"},"geometry":{"type":"Point","coordinates":[101.5867023,3.0766874]},"id":"node/13026286448"},{"type":"Feature","properties":{"@id":"node/13026286449","amenity":"restaurant","cuisine":"noodle","name":"Beef Bowl SS15"},"geometry":{"type":"Point","coordinates":[101.5868358,3.0766884]},"id":"node/13026286449"},{"type":"Feature","properties":{"@id":"node/13026286450","amenity":"restaurant","cuisine":"chinese","name":"Luckin Kitchen SS15","name:zh":"外婆家中餐馆"},"geometry":{"type":"Point","coordinates":[101.5869538,3.0766975]},"id":"node/13026286450"},{"type":"Feature","properties":{"@id":"node/13026286451","name":"Chillax Liquor & Wine","shop":"wine"},"geometry":{"type":"Point","coordinates":[101.5870727,3.0766995]},"id":"node/13026286451"},{"type":"Feature","properties":{"@id":"node/13026286452","amenity":"food_court","name":"(Lao Jie Fang) Old Street Friends White Coffee","name:zh":"老街坊"},"geometry":{"type":"Point","coordinates":[101.5881638,3.0769474]},"id":"node/13026286452"},{"type":"Feature","properties":{"@id":"node/13026286453","amenity":"restaurant","cuisine":"korean","name":"Jang Sa Jang Deopbap Restaurant"},"geometry":{"type":"Point","coordinates":[101.5883184,3.0772588]},"id":"node/13026286453"},{"type":"Feature","properties":{"@id":"node/13026286454","amenity":"restaurant","cuisine":"thai","name":"Soi 55 Thai Kitchen • SS15 Subang Jaya"},"geometry":{"type":"Point","coordinates":[101.5883231,3.0774601]},"id":"node/13026286454"},{"type":"Feature","properties":{"@id":"node/13026286455","amenity":"pharmacy","healthcare":"pharmacy","name":"Mega Kulim Pharmacy SS15 Subang Jaya"},"geometry":{"type":"Point","coordinates":[101.5872607,3.0753334]},"id":"node/13026286455"},{"type":"Feature","properties":{"@id":"node/13026286456","amenity":"pharmacy","healthcare":"pharmacy","name":"AA Pharmacy SS15 Subang"},"geometry":{"type":"Point","coordinates":[101.586982,3.0737229]},"id":"node/13026286456"},{"type":"Feature","properties":{"@id":"node/13026286457","amenity":"pharmacy","healthcare":"pharmacy","name":"CARiNG Pharmacy SS15"},"geometry":{"type":"Point","coordinates":[101.5875771,3.0737219]},"id":"node/13026286457"},{"type":"Feature","properties":{"@id":"node/13026286458","branch":"SS15 Two","brand":"Watsons","name":"Watsons SS15 Two","shop":"chemist","wikidata":"Q7974785","wikimedia_commons":"Category:Watsons shops","wikipedia":"ms:Watsons"},"geometry":{"type":"Point","coordinates":[101.5892535,3.0740863]},"id":"node/13026286458"},{"type":"Feature","properties":{"@id":"node/13026286459","name":"RT Pastry House SS15","shop":"bakery"},"geometry":{"type":"Point","coordinates":[101.5868716,3.0737161]},"id":"node/13026286459"},{"type":"Feature","properties":{"@id":"node/13026286460","name":"TK Bakery SS15","shop":"bakery"},"geometry":{"type":"Point","coordinates":[101.5870334,3.0737334]},"id":"node/13026286460"},{"type":"Feature","properties":{"@id":"node/13026286461","cuisine":"cake","name":"Ning's Cake SS15","shop":"pastry"},"geometry":{"type":"Point","coordinates":[101.5905187,3.0756832]},"id":"node/13026286461"},{"type":"Feature","properties":{"@id":"node/13026286462","amenity":"cafe","cuisine":"dessert","name":"Lol Soon Kee Desserts SS15"},"geometry":{"type":"Point","coordinates":[101.5905238,3.0758566]},"id":"node/13026286462"},{"type":"Feature","properties":{"@id":"node/13026286463","amenity":"restaurant","cuisine":"chinese","name":"SJ Delicious Chinese Dish Restaurant"},"geometry":{"type":"Point","coordinates":[101.5905204,3.0757426]},"id":"node/13026286463"},{"type":"Feature","properties":{"@id":"node/13026286465","amenity":"restaurant","cuisine":"korean;barbecue","name":"Brothers"},"geometry":{"type":"Point","coordinates":[101.59051,3.0759777]},"id":"node/13026286465"},{"type":"Feature","properties":{"@id":"node/13026286470","name":"Pressto SS15","shop":"laundry"},"geometry":{"type":"Point","coordinates":[101.5888306,3.0737046]},"id":"node/13026286470"},{"type":"Feature","properties":{"@id":"node/13026286471","name":"Cuci Express Laundry • SS14 Subang Jaya","shop":"laundry"},"geometry":{"type":"Point","coordinates":[101.5885126,3.0727997]},"id":"node/13026286471"},{"type":"Feature","properties":{"@id":"node/13026286472","name":"Unique Laundry","self_service":"yes","shop":"laundry"},"geometry":{"type":"Point","coordinates":[101.5883333,3.0771762]},"id":"node/13026286472"},{"type":"Feature","properties":{"@id":"node/13026286473","name":"Mama Jo Launderette (Courtyard @ Subang) - Dry Cleaning / Laundry & Leather Care Restoration","shop":"dry_cleaning"},"geometry":{"type":"Point","coordinates":[101.5865621,3.0780616]},"id":"node/13026286473"},{"type":"Feature","properties":{"@id":"node/13026286474","name":"Hair Moment Salon @ Subang Square Subang Jaya SS15/4G","shop":"hairdresser"},"geometry":{"type":"Point","coordinates":[101.5893421,3.0780982]},"id":"node/13026286474"},{"type":"Feature","properties":{"@id":"node/13026286475","name":"Spazio Hair Studio","shop":"hairdresser"},"geometry":{"type":"Point","coordinates":[101.5870351,3.0740494]},"id":"node/13026286475"},{"type":"Feature","properties":{"@id":"node/13026286476","name":"Zetro Salon SS15","shop":"hairdresser"},"geometry":{"type":"Point","coordinates":[101.5898991,3.0740861]},"id":"node/13026286476"},{"type":"Feature","properties":{"@id":"node/13026286477","amenity":"restaurant","cuisine":"pizza;american","name":"Big Brooklyn Pizza SS15"},"geometry":{"type":"Point","coordinates":[101.5902077,3.073758]},"id":"node/13026286477"},{"type":"Feature","properties":{"@id":"node/13026286478","amenity":"restaurant","cuisine":"pizza","name":"Lloyd's Pizza SS15"},"geometry":{"type":"Point","coordinates":[101.5903248,3.0740704]},"id":"node/13026286478"},{"type":"Feature","properties":{"@id":"node/13026286479","amenity":"fast_food","brand":"Domino's","brand:wikidata":"Q839466","cuisine":"pizza","name":"Domino's","takeaway":"yes"},"geometry":{"type":"Point","coordinates":[101.5884224,3.0737124]},"id":"node/13026286479"},{"type":"Feature","properties":{"@id":"node/13026286480","amenity":"restaurant","cuisine":"pizza","name":"myPizzaLab SS15"},"geometry":{"type":"Point","coordinates":[101.5879207,3.0759904]},"id":"node/13026286480"},{"type":"Feature","properties":{"@id":"node/13026286481","name":"Subang Park Hotel","tourism":"hotel"},"geometry":{"type":"Point","coordinates":[101.5902596,3.0816056]},"id":"node/13026286481"},{"type":"Feature","properties":{"@id":"node/13026286482","brand":"Swing & Pillows","name":"Swing & Pillows @ Subang SS15","tourism":"hotel","website":"https://swingandpillows.com/"},"geometry":{"type":"Point","coordinates":[101.5903172,3.0816165]},"id":"node/13026286482"},{"type":"Feature","properties":{"@id":"node/13026286483","name":"Core Design Gallery","phone":"0356121168","tourism":"gallery","website":"https://corecontemporaryart.com/"},"geometry":{"type":"Point","coordinates":[101.5898622,3.0815659]},"id":"node/13026286483"},{"type":"Feature","properties":{"@id":"node/13026286484","amenity":"restaurant","bar":"yes","cuisine":"asian","name":"Yilo Restaurant & Bar | SS15"},"geometry":{"type":"Point","coordinates":[101.5902582,3.0815923]},"id":"node/13026286484"},{"type":"Feature","properties":{"@id":"node/13026287297","amenity":"restaurant","cuisine":"seafood","diet:pork-free":"yes","name":"Crocodile Farm Seafood Village Restaurant Pork Free"},"geometry":{"type":"Point","coordinates":[101.5999508,3.0814642]},"id":"node/13026287297"},{"type":"Feature","properties":{"@id":"node/13026287580","amenity":"restaurant","cuisine":"mexican","name":"Chachi Mexican Street Food"},"geometry":{"type":"Point","coordinates":[101.5902054,3.0736906]},"id":"node/13026287580"},{"type":"Feature","properties":{"@id":"node/13026287581","amenity":"restaurant","brand":"Chili's","brand:wikidata":"Q1072948","cuisine":"tex-mex","name":"Chili's","official_name":"Chili's Grill & Bar"},"geometry":{"type":"Point","coordinates":[101.5832343,3.0822512]},"id":"node/13026287581"},{"type":"Feature","properties":{"@id":"node/13026287582","name":"Cuckoo Ss15 Courtyard","shop":"electronics"},"geometry":{"type":"Point","coordinates":[101.5866981,3.0778924]},"id":"node/13026287582"},{"type":"Feature","properties":{"@id":"node/13026287583","name":"Panasonic","shop":"appliance"},"geometry":{"type":"Point","coordinates":[101.5867138,3.0740451]},"id":"node/13026287583"},{"type":"Feature","properties":{"@id":"node/13026336830","amenity":"pharmacy","branch":"SS15 Courtyard","brand":"Guardian","brand:wikidata":"Q63371124","healthcare":"pharmacy","name":"Guardian"},"geometry":{"type":"Point","coordinates":[101.5865581,3.0775709]},"id":"node/13026336830"},{"type":"Feature","properties":{"@id":"node/13026336831","amenity":"pharmacy","branch":"SS15 Courtyard","brand":"Watsons","brand:wikidata":"Q7974785","healthcare":"pharmacy","name":"Watsons"},"geometry":{"type":"Point","coordinates":[101.5867185,3.0775886]},"id":"node/13026336831"},{"type":"Feature","properties":{"@id":"node/13026336833","addr:housenumber":"LG 03A","amenity":"cafe","name":"Whisk Espresso Bar & Bake Shop @ Empire Shopping Gallery"},"geometry":{"type":"Point","coordinates":[101.5822037,3.0818877]},"id":"node/13026336833"},{"type":"Feature","properties":{"@id":"node/13026336834","addr:housenumber":"LG 36","amenity":"pharmacy","brand":"Watsons","brand:wikidata":"Q7974785","healthcare":"pharmacy","name":"Watsons"},"geometry":{"type":"Point","coordinates":[101.5822602,3.0818139]},"id":"node/13026336834"},{"type":"Feature","properties":{"@id":"node/13026336835","addr:housenumber":"F13","brand":"Watsons","brand:wikidata":"Q7974785","name":"Watsons","shop":"chemist"},"geometry":{"type":"Point","coordinates":[101.582748,3.0821143]},"id":"node/13026336835"},{"type":"Feature","properties":{"@id":"node/13026336836","addr:housenumber":"G02 & 28A","branch":"Nu Empire","brand":"Decathlon","brand:wikidata":"Q509349","name":"Decathlon","shop":"sports"},"geometry":{"type":"Point","coordinates":[101.5820599,3.0818374]},"id":"node/13026336836"},{"type":"Feature","properties":{"@id":"node/13026336837","addr:housenumber":"UG 01","brand":"Muji","brand:en":"Muji","brand:ja":"無印良品","brand:wikidata":"Q708789","name":"Muji","name:en":"Muji","name:ja":"無印良品","shop":"department_store"},"geometry":{"type":"Point","coordinates":[101.5820537,3.0817768]},"id":"node/13026336837"},{"type":"Feature","properties":{"@id":"node/13026336838","addr:housenumber":"UG 15-16","brand":"Uniqlo","brand:wikidata":"Q26070","name":"Uniqlo","shop":"clothes"},"geometry":{"type":"Point","coordinates":[101.5830542,3.0822274]},"id":"node/13026336838"},{"type":"Feature","properties":{"@id":"node/13026340352","name":"NSK Grocer Summit USJ","phone":"01155831838","shop":"supermarket"},"geometry":{"type":"Point","coordinates":[101.593388,3.0597136]},"id":"node/13026340352"},{"type":"Feature","properties":{"@id":"node/13026345861","addr:city":"Simpang Ampat","addr:housenumber":"12A-G","addr:postcode":"14110","addr:street":"Jalan Vervea 9","air_conditioning":"yes","amenity":"restaurant","cuisine":"japanese","diet:halal":"no","internet_access":"wlan","internet_access:fee":"no","internet_access:password":"renwafu12ag","internet_access:ssid":"RenWafu","level":"0","name":"Ren Wafu Ramen & Don","outdoor_seating":"no","toilets":"yes"},"geometry":{"type":"Point","coordinates":[100.440607,5.2374361]},"id":"node/13026345861"},{"type":"Feature","properties":{"@id":"node/13026350329","amenity":"parking_entrance"},"geometry":{"type":"Point","coordinates":[101.5768583,3.2080385]},"id":"node/13026350329"},{"type":"Feature","properties":{"@id":"node/13026462320","amenity":"dentist","healthcare":"dentist","name":"Anna Dental Clinic"},"geometry":{"type":"Point","coordinates":[101.5879502,3.0814965]},"id":"node/13026462320"},{"type":"Feature","properties":{"@id":"node/13026464977","name":"OPM Lite","shop":"car_repair"},"geometry":{"type":"Point","coordinates":[101.5872315,3.0815413]},"id":"node/13026464977"},{"type":"Feature","properties":{"@id":"node/13026490518","name":"Vapeyard","shop":"e-cigarette"},"geometry":{"type":"Point","coordinates":[101.5877809,3.081554]},"id":"node/13026490518"},{"type":"Feature","properties":{"@id":"node/13026493833","amenity":"clinic","healthcare":"clinic","name":"Peters Radiant Aesthetic & Hair Transplant Clinic"},"geometry":{"type":"Point","coordinates":[101.5879465,3.0815307]},"id":"node/13026493833"},{"type":"Feature","properties":{"@id":"node/13026494305","name":"Best Optics SS15","shop":"optician"},"geometry":{"type":"Point","coordinates":[101.587294,3.0815581]},"id":"node/13026494305"},{"type":"Feature","properties":{"@id":"node/13026497131","amenity":"dentist","healthcare":"dentist","healthcare:speciality":"orthodontics","name":"Angle & Edge"},"geometry":{"type":"Point","coordinates":[101.5878903,3.0815312]},"id":"node/13026497131"},{"type":"Feature","properties":{"@id":"node/13026499231","amenity":"clinic","healthcare":"clinic","name":"Klinik Jaya"},"geometry":{"type":"Point","coordinates":[101.5873418,3.0815604]},"id":"node/13026499231"},{"type":"Feature","properties":{"@id":"node/13026509405","amenity":"dentist","healthcare":"dentist","name":"Anita Dental Clinic"},"geometry":{"type":"Point","coordinates":[101.5874059,3.0815548]},"id":"node/13026509405"},{"type":"Feature","properties":{"@id":"node/13026512959","amenity":"restaurant","cuisine":"chinese","name":"Esquire Kitchen"},"geometry":{"type":"Point","coordinates":[101.5865641,3.0823108]},"id":"node/13026512959"},{"type":"Feature","properties":{"@id":"node/13026515140","amenity":"cafe","brand":"Chagee","brand:wikidata":"Q125052867","cuisine":"bubble_tea","name":"Chagee","takeaway":"yes"},"geometry":{"type":"Point","coordinates":[101.586224,3.0822538]},"id":"node/13026515140"},{"type":"Feature","properties":{"@id":"node/13026518233","amenity":"restaurant","cuisine":"malaysian","name":"Padi House"},"geometry":{"type":"Point","coordinates":[101.586387,3.0823012]},"id":"node/13026518233"},{"type":"Feature","properties":{"@id":"node/13026544244","amenity":"restaurant","cuisine":"chinese","name":"Oriental Parade"},"geometry":{"type":"Point","coordinates":[101.5867334,3.082339]},"id":"node/13026544244"},{"type":"Feature","properties":{"@id":"node/13026545017","name":"Bhaju","shop":"clothes"},"geometry":{"type":"Point","coordinates":[101.58576,3.0826563]},"id":"node/13026545017"},{"type":"Feature","properties":{"@id":"node/13026740263","amenity":"library","name":"Perpustakaan Hipermedia MBSJ"},"geometry":{"type":"Point","coordinates":[101.6003743,3.0727096]},"id":"node/13026740263"},{"type":"Feature","properties":{"@id":"node/13026742369","name":"My SJ Hotel","tourism":"hotel"},"geometry":{"type":"Point","coordinates":[101.5871939,3.0753376]},"id":"node/13026742369"},{"type":"Feature","properties":{"@id":"node/13026742370","name":"Max Hotel SS15","tourism":"hotel"},"geometry":{"type":"Point","coordinates":[101.5882818,3.0737015]},"id":"node/13026742370"},{"type":"Feature","properties":{"@id":"node/13027403488","amenity":"restaurant","cuisine":"thai","name":"128 Thai"},"geometry":{"type":"Point","coordinates":[101.5879642,3.076745]},"id":"node/13027403488"},{"type":"Feature","properties":{"@id":"node/13027465386","amenity":"ice_cream","name":"Lezzetto Ice Cream"},"geometry":{"type":"Point","coordinates":[101.5880222,3.0768013]},"id":"node/13027465386"},{"type":"Feature","properties":{"@id":"node/13027476841","name":"Lim Brother Auto Cars Care Center","shop":"car_repair"},"geometry":{"type":"Point","coordinates":[101.5883968,3.0768373]},"id":"node/13027476841"},{"type":"Feature","properties":{"@id":"node/13027476849","amenity":"restaurant","cuisine":"hotpot","name":"Bee Ho Steamboat"},"geometry":{"type":"Point","coordinates":[101.5882405,3.0770647]},"id":"node/13027476849"},{"type":"Feature","properties":{"@id":"node/13027478690","amenity":"restaurant","cuisine":"chinese","name":"Bangkok Curry Fish Head Restaurant"},"geometry":{"type":"Point","coordinates":[101.5881659,3.0766136]},"id":"node/13027478690"},{"type":"Feature","properties":{"@id":"node/13027599664","name":"DT Mart","shop":"convenience"},"geometry":{"type":"Point","coordinates":[101.5885776,3.078002]},"id":"node/13027599664"},{"type":"Feature","properties":{"@id":"node/13027616752","name":"Pruan","place":"town","population":"1000"},"geometry":{"type":"Point","coordinates":[111.4396835,1.2597914]},"id":"node/13027616752"},{"type":"Feature","properties":{"@id":"node/13027618808","amenity":"restaurant","cuisine":"japanese","name":"Chitose Japanese Restaurant"},"geometry":{"type":"Point","coordinates":[101.5880823,3.0768422]},"id":"node/13027618808"},{"type":"Feature","properties":{"@id":"node/13027619253","name":"SJ Stationery","shop":"stationery"},"geometry":{"type":"Point","coordinates":[101.5885774,3.0773675]},"id":"node/13027619253"},{"type":"Feature","properties":{"@id":"node/13027620212","name":"Flower Lane Florist","shop":"florist"},"geometry":{"type":"Point","coordinates":[101.5883212,3.0773865]},"id":"node/13027620212"},{"type":"Feature","properties":{"@id":"node/13027623573","brand":"7-Eleven","brand:wikidata":"Q259340","name":"7-Eleven","shop":"convenience"},"geometry":{"type":"Point","coordinates":[101.5779764,3.0337835]},"id":"node/13027623573"},{"type":"Feature","properties":{"@id":"node/13027624941","name":"QCPLUS Egg and Grocery","shop":"grocery"},"geometry":{"type":"Point","coordinates":[101.5885765,3.0776932]},"id":"node/13027624941"},{"type":"Feature","properties":{"@id":"node/13027626790","amenity":"restaurant","cuisine":"chinese","name":"Mala Paradise"},"geometry":{"type":"Point","coordinates":[101.5883214,3.0778854]},"id":"node/13027626790"},{"type":"Feature","properties":{"@id":"node/13027627118","amenity":"restaurant","cuisine":"indian","name":"MK Banana Leaf Restaurant"},"geometry":{"type":"Point","coordinates":[101.5883363,3.0779413]},"id":"node/13027627118"},{"type":"Feature","properties":{"@id":"node/13027629898","name":"Hybrid Zone","pet":"fish","shop":"pet"},"geometry":{"type":"Point","coordinates":[101.5885743,3.0780661]},"id":"node/13027629898"},{"type":"Feature","properties":{"@id":"node/13027716712","name":"Bakong","place":"town","population":"500"},"geometry":{"type":"Point","coordinates":[111.3060646,1.3263418]},"id":"node/13027716712"},{"type":"Feature","properties":{"@id":"node/13027718859","name":"Gran","place":"town","population":"1000"},"geometry":{"type":"Point","coordinates":[111.3815943,1.2931706]},"id":"node/13027718859"},{"type":"Feature","properties":{"@id":"node/13027723380","amenity":"bar","name":"Neighbourhood Wine Bar"},"geometry":{"type":"Point","coordinates":[101.5769296,3.0325807]},"id":"node/13027723380"},{"type":"Feature","properties":{"@id":"node/13027727265","name":"Gentle Paw","shop":"pet_grooming"},"geometry":{"type":"Point","coordinates":[101.5772083,3.032581]},"id":"node/13027727265"},{"type":"Feature","properties":{"@id":"node/13027727471","addr:housenumber":"103","addr:street":"Jalan Sultan","shop":"clothes"},"geometry":{"type":"Point","coordinates":[101.6986912,3.1447036]},"id":"node/13027727471"},{"type":"Feature","properties":{"@id":"node/13027727472","addr:housenumber":"87","addr:street":"Jalan Sultan","amenity":"fast_food","name":"Bee Cheng Hiang"},"geometry":{"type":"Point","coordinates":[101.6987077,3.14426]},"id":"node/13027727472"},{"type":"Feature","properties":{"@id":"node/13027727473","addr:housenumber":"102","amenity":"fast_food","name":"Chinese Food City"},"geometry":{"type":"Point","coordinates":[101.6979585,3.1425636]},"id":"node/13027727473"},{"type":"Feature","properties":{"@id":"node/13027727476","addr:housenumber":"101","addr:street":"Jalan Sultan","name":"Leong Yik Hing","shop":"leather"},"geometry":{"type":"Point","coordinates":[101.6986974,3.1446528]},"id":"node/13027727476"},{"type":"Feature","properties":{"@id":"node/13027727477","addr:housenumber":"91","name":"Dury Dury","shop":"greengrocer"},"geometry":{"type":"Point","coordinates":[101.6986861,3.1443516]},"id":"node/13027727477"},{"type":"Feature","properties":{"@id":"node/13027727478","addr:housenumber":"95;97","name":"Becon","shop":"stationery"},"geometry":{"type":"Point","coordinates":[101.6986756,3.1444906]},"id":"node/13027727478"},{"type":"Feature","properties":{"@id":"node/13027727479","addr:housenumber":"20","addr:street":"Jalan Sultan","name":"Newkle Keylock","shop":"locksmith"},"geometry":{"type":"Point","coordinates":[101.6980163,3.1425678]},"id":"node/13027727479"},{"type":"Feature","properties":{"@id":"node/13027727480","addr:housenumber":"89","addr:street":"Jalan Sultan","amenity":"restaurant","name":"Restoran H&Y Jalan Sultan"},"geometry":{"type":"Point","coordinates":[101.6987015,3.1443126]},"id":"node/13027727480"},{"type":"Feature","properties":{"@id":"node/13027745548","female":"yes","male":"yes","name":"Hedge & Hedge","shop":"hairdresser"},"geometry":{"type":"Point","coordinates":[101.5775285,3.0325912]},"id":"node/13027745548"},{"type":"Feature","properties":{"@id":"node/13027751965","name":"Sugar Bites Cake","shop":"yes"},"geometry":{"type":"Point","coordinates":[101.5769396,3.0322685]},"id":"node/13027751965"},{"type":"Feature","properties":{"@id":"node/13027751966","name":"dobi Queen","self_service":"yes","shop":"laundry"},"geometry":{"type":"Point","coordinates":[101.5772135,3.0322792]},"id":"node/13027751966"},{"type":"Feature","properties":{"@id":"node/13027758170","amenity":"restaurant","name":"Lapan"},"geometry":{"type":"Point","coordinates":[101.5776398,3.0325997]},"id":"node/13027758170"},{"type":"Feature","properties":{"@id":"node/13027758891","name":"Do Bae","self_service":"yes","shop":"laundry"},"geometry":{"type":"Point","coordinates":[101.5770952,3.0325862]},"id":"node/13027758891"},{"type":"Feature","properties":{"@id":"node/13027760055","amenity":"cafe","cuisine":"coffee_shop;sandwich","internet_access":"wlan","internet_access:fee":"no","name":"Coffee Space USJ","outdoor_seating":"no"},"geometry":{"type":"Point","coordinates":[101.5787521,3.0333818]},"id":"node/13027760055"},{"type":"Feature","properties":{"@id":"node/13027761865","amenity":"cafe","name":"16 Degree Coffe & Grocer"},"geometry":{"type":"Point","coordinates":[101.5770994,3.0322574]},"id":"node/13027761865"},{"type":"Feature","properties":{"@id":"node/13027762473","amenity":"restaurant","name":"Ru Yu Xuan Kopitiam"},"geometry":{"type":"Point","coordinates":[101.5790035,3.0331707]},"id":"node/13027762473"},{"type":"Feature","properties":{"@id":"node/13027762886","name":"Roxy Auto Accessories Sdn Bhd","shop":"car_parts"},"geometry":{"type":"Point","coordinates":[101.5774221,3.0325865]},"id":"node/13027762886"},{"type":"Feature","properties":{"@id":"node/13027767891","name":"Juan Auto Centre","shop":"car_repair"},"geometry":{"type":"Point","coordinates":[101.5777664,3.0322743]},"id":"node/13027767891"},{"type":"Feature","properties":{"@id":"node/13027772067","name":"Universal Mayaa Resources Barbershop","shop":"hairdresser"},"geometry":{"type":"Point","coordinates":[101.5787954,3.0333447]},"id":"node/13027772067"},{"type":"Feature","properties":{"@id":"node/13027777786","brand":"Giant Mini","brand:wikidata":"Q4217013","name":"Giant Mini","shop":"variety_store"},"geometry":{"type":"Point","coordinates":[101.5791334,3.033475]},"id":"node/13027777786"},{"type":"Feature","properties":{"@id":"node/13027778350","amenity":"restaurant","name":"Lapan"},"geometry":{"type":"Point","coordinates":[101.5772688,3.0322629]},"id":"node/13027778350"},{"type":"Feature","properties":{"@id":"node/13027784308","name":"Head Artistic Salon","shop":"hairdresser"},"geometry":{"type":"Point","coordinates":[101.5769974,3.0325879]},"id":"node/13027784308"},{"type":"Feature","properties":{"@id":"node/13027785729","name":"Kedai Runcit Cap Pa Lang","shop":"yes"},"geometry":{"type":"Point","coordinates":[101.576974,3.0325898]},"id":"node/13027785729"},{"type":"Feature","properties":{"@id":"node/13027786822","beauty":"nails","name":"Nail Affairs","shop":"beauty"},"geometry":{"type":"Point","coordinates":[101.5770415,3.0325872]},"id":"node/13027786822"},{"type":"Feature","properties":{"@id":"node/13027787433","brand":"KK Super Mart","brand:wikidata":"Q95721993","name":"KK Super Mart","shop":"convenience","short_name":"KK"},"geometry":{"type":"Point","coordinates":[101.5790947,3.0335175]},"id":"node/13027787433"},{"type":"Feature","properties":{"@id":"node/13027788102","name":"FACESUN SCITECH 荟生","shop":"massage"},"geometry":{"type":"Point","coordinates":[101.5774365,3.0322708]},"id":"node/13027788102"},{"type":"Feature","properties":{"@id":"node/13027788990","name":"P G Hardware Shop","shop":"hardware"},"geometry":{"type":"Point","coordinates":[101.5775893,3.0322693]},"id":"node/13027788990"},{"type":"Feature","properties":{"@id":"node/13027795137","amenity":"car_wash","automated":"no","name":"P H","self_service":"no"},"geometry":{"type":"Point","coordinates":[101.5792333,3.0333825]},"id":"node/13027795137"},{"type":"Feature","properties":{"@id":"node/13027795452","laundry_service":"yes","name":"Subang Crystal Clean","self_service":"no","shop":"laundry"},"geometry":{"type":"Point","coordinates":[101.5773775,3.0322527]},"id":"node/13027795452"},{"type":"Feature","properties":{"@id":"node/13027795596","amenity":"clinic","healthcare":"clinic","name":"Poliklinik Juara Medic"},"geometry":{"type":"Point","coordinates":[101.5788784,3.0332666]},"id":"node/13027795596"},{"type":"Feature","properties":{"@id":"node/13027796204","name":"Butik Muslimah Neny","shop":"clothes"},"geometry":{"type":"Point","coordinates":[101.5775258,3.0322719]},"id":"node/13027796204"},{"type":"Feature","properties":{"@id":"node/13027800786","name":"Cynthia Beauty Saloon","shop":"hairdresser"},"geometry":{"type":"Point","coordinates":[101.5788337,3.0333028]},"id":"node/13027800786"},{"type":"Feature","properties":{"@id":"node/13027801660","name":"i-sight optical","shop":"optician"},"geometry":{"type":"Point","coordinates":[101.5790485,3.0335487]},"id":"node/13027801660"},{"type":"Feature","properties":{"@id":"node/13027802669","amenity":"community_centre","name":"Balai Masyarakat MBSJ MPP Zon3 USJ17"},"geometry":{"type":"Point","coordinates":[101.5794394,3.0333522]},"id":"node/13027802669"},{"type":"Feature","properties":{"@id":"node/13027806893","name":"Boss Reflexology","shop":"massage"},"geometry":{"type":"Point","coordinates":[101.5789258,3.0332273]},"id":"node/13027806893"},{"type":"Feature","properties":{"@id":"node/13027806894","name":"S K Key Lock","shop":"locksmith"},"geometry":{"type":"Point","coordinates":[101.5788036,3.0333307]},"id":"node/13027806894"},{"type":"Feature","properties":{"@id":"node/13028171401","addr:street":"Lebuh Cintra","amenity":"restaurant","cuisine":"thai","name":"Thóng Thai Fusion","outdoor_seating":"no"},"geometry":{"type":"Point","coordinates":[100.3333831,5.4174944]},"id":"node/13028171401"},{"type":"Feature","properties":{"@id":"node/13028278293","shop":"vacant"},"geometry":{"type":"Point","coordinates":[101.5874947,3.0771216]},"id":"node/13028278293"},{"type":"Feature","properties":{"@id":"node/13028284160","name":"GST DIY","shop":"hardware"},"geometry":{"type":"Point","coordinates":[101.5879002,3.0775146]},"id":"node/13028284160"},{"type":"Feature","properties":{"@id":"node/13028302081","amenity":"university","name":"UNIMAS Kuala Lumpur Learning Centre"},"geometry":{"type":"Point","coordinates":[101.5899103,3.0772359]},"id":"node/13028302081"},{"type":"Feature","properties":{"@id":"node/13028502184","amenity":"restaurant","name":"Nasir Cafe"},"geometry":{"type":"Point","coordinates":[101.5865357,3.0801352]},"id":"node/13028502184"},{"type":"Feature","properties":{"@id":"node/13028502185","name":"Tailoring & Alteration","shop":"tailor"},"geometry":{"type":"Point","coordinates":[101.5865373,3.0801916]},"id":"node/13028502185"},{"type":"Feature","properties":{"@id":"node/13028502186","amenity":"restaurant","name":"Dinar Cafe"},"geometry":{"type":"Point","coordinates":[101.5865378,3.0802464]},"id":"node/13028502186"},{"type":"Feature","properties":{"@id":"node/13028502187","name":"As Sunnah","shop":"books"},"geometry":{"type":"Point","coordinates":[101.5865378,3.0802967]},"id":"node/13028502187"},{"type":"Feature","properties":{"@id":"node/13029291111","amenity":"cafe","brand":"Chagee","brand:wikidata":"Q125052867","cuisine":"bubble_tea","name":"Chagee","takeaway":"yes"},"geometry":{"type":"Point","coordinates":[101.6060633,3.0733149]},"id":"node/13029291111"},{"type":"Feature","properties":{"@id":"node/13029291112","amenity":"cafe","brand":"Luckin Coffee","brand:wikidata":"Q56811344","cuisine":"coffee_shop","name":"Luckin Coffee","takeaway":"yes"},"geometry":{"type":"Point","coordinates":[101.6057966,3.0733081]},"id":"node/13029291112"},{"type":"Feature","properties":{"@id":"node/13029841103","brand":"99 Speedmart","brand:wikidata":"Q62075061","name":"99 Speedmart","shop":"supermarket"},"geometry":{"type":"Point","coordinates":[101.7170733,3.0047554]},"id":"node/13029841103"},{"type":"Feature","properties":{"@id":"node/13029841105","bench":"yes","bus":"yes","highway":"bus_stop","name":"Komersial Taman Sri Serdang","network":"MRT Feeder Bus","operator":"Rapid Bus","public_transport":"platform","ref":"SJ123","route_ref":"T567","shelter":"yes"},"geometry":{"type":"Point","coordinates":[101.7153722,3.0097233]},"id":"node/13029841105"},{"type":"Feature","properties":{"@id":"node/13029841106","brand":"FamilyMart","brand:wikidata":"Q11247682","name":"FamilyMart","shop":"convenience"},"geometry":{"type":"Point","coordinates":[101.7147123,3.0087924]},"id":"node/13029841106"},{"type":"Feature","properties":{"@id":"node/13029841107","amenity":"fast_food","brand":"Marrybrown","brand:wikidata":"Q3380773","cuisine":"malaysian;chicken;burger","diet:halal":"yes","name":"Marrybrown","takeaway":"yes"},"geometry":{"type":"Point","coordinates":[101.7129638,3.0072716]},"id":"node/13029841107"},{"type":"Feature","properties":{"@id":"node/13029841111","bus":"yes","highway":"bus_stop","name":"Taman Serdang Jaya (Tenggara)","network":"Smart Selangor Bus","public_transport":"platform","ref":"SJ130","shelter":"no"},"geometry":{"type":"Point","coordinates":[101.7081265,3.0105834]},"id":"node/13029841111"},{"type":"Feature","properties":{"@id":"node/13029841112","bus":"yes","highway":"bus_stop","name":"Taman Serdang Jaya (Tenggara)","network":"Smart Selangor Bus","public_transport":"platform","ref":"SJ139","shelter":"no"},"geometry":{"type":"Point","coordinates":[101.7082102,3.0107465]},"id":"node/13029841112"},{"type":"Feature","properties":{"@id":"node/13029841113","bus":"yes","highway":"bus_stop","name":"Rumah No 83","network":"Smart Selangor Bus","old_name":"Taman Sri Andalas (Tengah)","public_transport":"platform","ref":"SJ137","shelter":"no"},"geometry":{"type":"Point","coordinates":[101.7067158,3.0139398]},"id":"node/13029841113"},{"type":"Feature","properties":{"@id":"node/13029841114","bus":"yes","highway":"bus_stop","name":"Perumahan Taman Serdang Jaya","network":"Smart Selangor Bus","old_name":"Taman Sri Andalas (Utara)","public_transport":"platform","ref":"SJ645","shelter":"no"},"geometry":{"type":"Point","coordinates":[101.706709,3.0164013]},"id":"node/13029841114"},{"type":"Feature","properties":{"@id":"node/13030721614","addr:city":"Melaka","addr:housenumber":"695","addr:postcode":"75250","addr:street":"Jalan Krubong","amenity":"recycling","building":"yes","name":"Heng Hup Hardware (M) Sdn Bhd","opening_hours":"Mo-Sa 08:30-18:00","phone":"+6063374295","recycling:scrap_metal":"yes","recycling_type":"centre","website":"henghup.com"},"geometry":{"type":"Point","coordinates":[102.2292219,2.2771051]},"id":"node/13030721614"},{"type":"Feature","properties":{"@id":"node/13030730620","amenity":"restaurant","name":"ABC Restaurant"},"geometry":{"type":"Point","coordinates":[101.5870668,3.077131]},"id":"node/13030730620"},{"type":"Feature","properties":{"@id":"node/13030730621","name":"DACO PETSMART","shop":"pet"},"geometry":{"type":"Point","coordinates":[101.5869512,3.0771299]},"id":"node/13030730621"},{"type":"Feature","properties":{"@id":"node/13030730622","name":"SE Auto Accessories","shop":"car_parts"},"geometry":{"type":"Point","coordinates":[101.5868934,3.0771322]},"id":"node/13030730622"},{"type":"Feature","properties":{"@id":"node/13030730623","name":"Huan Leong Auto Parts","shop":"car_parts"},"geometry":{"type":"Point","coordinates":[101.5868332,3.077131]},"id":"node/13030730623"},{"type":"Feature","properties":{"@id":"node/13030730624","name":"Pakaian Seragam& Jahitan SJ","shop":"tailor"},"geometry":{"type":"Point","coordinates":[101.5867754,3.0771287]},"id":"node/13030730624"},{"type":"Feature","properties":{"@id":"node/13030777957","amenity":"cafe","branch":"The Horizon, Bangsar South","cuisine":"coffee_shop","name":"Kenangan Coffee"},"geometry":{"type":"Point","coordinates":[101.6674027,3.1118778]},"id":"node/13030777957"},{"type":"Feature","properties":{"@id":"node/13030777958","amenity":"restaurant","name":"Salad Atelier"},"geometry":{"type":"Point","coordinates":[101.6678441,3.1107199]},"id":"node/13030777958"},{"type":"Feature","properties":{"@id":"node/13031159144","addr:city":"Rawang","addr:country":"Malaysia","addr:housenumber":"77","addr:postcode":"48000","addr:state":"Selangor Darul Ehsan","addr:street":"Jalan Bandar Rawang 2, Bandar Baru Rawang 2","brand":"Mobile Windscreen","email":"mobilewindscreen.cheras@gmail.com","latitude":"3.324500","longitude":"101.578278","name":"Mobile Windscreen Bandar Baru Rawang","name:en":"Mobile Windscreen","operator":"Mobile Windscreen","phone":"+6013-833 3038","service:vehicle:body_repair":"yes","service:vehicle:car_parts":"yes","service:vehicle:car_repair":"yes","service:vehicle:glass":"yes","shop":"car_repair","short_name":"Mobile Windscreen Rawang","website":"https://myhighst.com.my/business/listing/mobile-windscreen-bandar-baru-rawang"},"geometry":{"type":"Point","coordinates":[101.5783413,3.3245108]},"id":"node/13031159144"},{"type":"Feature","properties":{"@id":"node/13031240896","addr:city":"Daerah Port Dickson","addr:postcode":"71050","addr:street":"Lot 1944 Jalan Pantai 3, Tanjung Tanah Merah, Bandar Telok Kemang, Negeri Sembilan","amenity":"restaurant","cuisine":"chinese;seafood;thai","name":"Yacht by the Beach Seafood Restaurant","phone":"+601111919484","website":"https://myhighst.com.my/business/listing/yacht-by-the-beach-seafood-restaurant"},"geometry":{"type":"Point","coordinates":[101.8562847,2.4528499]},"id":"node/13031240896"},{"type":"Feature","properties":{"@id":"node/13031325219","amenity":"cafe","brand":"ZUS Coffee","brand:wikidata":"Q110811473","cuisine":"coffee_shop","name":"ZUS Coffee","takeaway":"yes"},"geometry":{"type":"Point","coordinates":[101.6949716,3.1560711]},"id":"node/13031325219"},{"type":"Feature","properties":{"@id":"node/13031348209","brand":"KK Super Mart","brand:wikidata":"Q95721993","name":"KK Super Mart","shop":"convenience","short_name":"KK"},"geometry":{"type":"Point","coordinates":[101.6996284,3.1762787]},"id":"node/13031348209"},{"type":"Feature","properties":{"@id":"node/13031815133","addr:city":"Klang,Selangor","addr:housenumber":"7","addr:postcode":"41200","addr:street":"Jalan Bayu Tinggi 7, Taman Bayu Tinggi","name":"MOBILE WINDSCREEN (BAYU TINGGI KLANG)","phone":"+6013-833 3038","service:vehicle:body_repair":"yes","service:vehicle:car_parts":"yes","service:vehicle:car_repair":"yes","service:vehicle:glass":"yes","shop":"car_repair"},"geometry":{"type":"Point","coordinates":[101.4314193,3.0147944]},"id":"node/13031815133"},{"type":"Feature","properties":{"@id":"node/13031846632","addr:city":"Klang,Selangor","addr:housenumber":"5","addr:postcode":"41150","addr:street":"Jalan Tiara 2B, Bandar Baru Klang,","brand":"MOBILE WINDSCREEN","email":"mobile_windscreen@yahoo.com","name":"MOBILE WINDSCREEN (BANDAR BARU KLANG) 2B","phone":"+6013-833 3038","service:vehicle:body_repair":"yes","service:vehicle:car_parts":"yes","service:vehicle:car_repair":"yes","service:vehicle:glass":"yes","service:vehicle:repair":"yes","shop":"car_repair"},"geometry":{"type":"Point","coordinates":[101.4686912,3.063187]},"id":"node/13031846632"},{"type":"Feature","properties":{"@id":"node/13031876068","addr:city":"Kuala Lumpur","addr:housenumber":"35","addr:postcode":"52100","addr:street":"Jalan Metro Perdana Timur 1, Taman Usahawan Kepong","branch":"MOBILE WINDSCREEN","name":"MOBILE WINDSCREEN (KEPONG)","phone":"+6013-833 3038","service:vehicle:body_repair":"yes","service:vehicle:car_parts":"yes","service:vehicle:car_repair":"yes","service:vehicle:glass":"yes","service:vehicle:repairs":"yes","shop":"car_repair"},"geometry":{"type":"Point","coordinates":[101.6456312,3.2133624]},"id":"node/13031876068"},{"type":"Feature","properties":{"@id":"node/13031886241","addr:city":"Johor Bahru, Johor.","addr:housenumber":"107","addr:postcode":"81100","addr:street":"Jalan Ros Merah 2/3, Johor Jaya,","name":"Mobile Windscreen (Johor Jaya)","operator":"Mobile Windscreen (Johor Jaya)","phone":"+6013-833 3038","service:vehicle:body_repair":"yes","service:vehicle:car_repair":"yes","service:vehicle:glass_repair":"yes","service:vehicle:repair":"yes","shop":"car_repair"},"geometry":{"type":"Point","coordinates":[103.7929451,1.5320143]},"id":"node/13031886241"},{"type":"Feature","properties":{"@id":"node/13031899357","addr:city":"Petaling Jaya,Selangor","addr:housenumber":"33","addr:postcode":"47810","addr:street":"Jalan PJU 5/20, Kota Damansara","brand":"Mobile Windscreen","name":"Mobile Windscreen Kota Damansara","operator":"Mobile Windscreen Kota Damansara","phone":"+6013-833 3038","service:vehicle:body_repair":"yes","service:vehicle:car_parts":"yes","service:vehicle:car_repair":"yes","service:vehicle:glass_repair":"yes","shop":"car_repair","website":"https://myhighst.com.my/business/search?search=kota+damansara&btn=Keywords"},"geometry":{"type":"Point","coordinates":[101.5931581,3.1540922]},"id":"node/13031899357"},{"type":"Feature","properties":{"@id":"node/13031925610","addr:city":"Kuala Lumpur","addr:housenumber":"3","addr:postcode":"58200","addr:street":"Jalan Kuchai Maju 2, Off Jalan Kuchai Lama","brand":"Mobile Windscreen","name":"Mobile Windscreen Jalan Kuchai Lama","operator":"Mobile Windscreen Jalan Kuchai Lama","phone":"+6013-833 3038","service:vehicle:body_repair":"yes","service:vehicle:car_parts":"yes","service:vehicle:car_repair":"yes","service:vehicle:glass_repair":"yes","shop":"car_repair"},"geometry":{"type":"Point","coordinates":[101.687769,3.0914336]},"id":"node/13031925610"},{"type":"Feature","properties":{"@id":"node/13031929379","addr:city":"Tanjong Malim,Perak","addr:housenumber":"67","addr:postcode":"35900","addr:street":"Taman Intan Setia","name":"Mobile Windscreen (Tanjong Malim)","operator":"Mobile Windscreen (Tanjong Malim)","phone":"+6013-833 3038","service:vehicle:body_repair":"yes","service:vehicle:car_repair":"yes","service:vehicle:glass_repair":"yes","shop":"car_repair"},"geometry":{"type":"Point","coordinates":[101.5143133,3.6969088]},"id":"node/13031929379"},{"type":"Feature","properties":{"@id":"node/13031932023","addr:city":"Klang,Selangor","addr:housenumber":"49","addr:postcode":"42000","addr:street":"Jalan Permata 1/KS 09, Pusat Perniagaan Bestari, Taman Perindustri","brand":"Mobile Windscreen","email":"info@mobilewindscreen.com.my","name":"MOBILE WINDSCREEN (BANDAR BESTARI KLANG)","phone":"+6013-833 3038","service:vehicle:car_repair":"yes","service:vehicle:glass_repair":"yes","shop":"car_repair","website":"https://myhighst.com.my/business/listing/mobile-windscreen-bandar-bestari-klang"},"geometry":{"type":"Point","coordinates":[101.4655904,2.9623014]},"id":"node/13031932023"},{"type":"Feature","properties":{"@id":"node/13031957693","addr:city":"Kuala Selangor","addr:housenumber":"43","addr:postcode":"45000","addr:street":"Jalan Peninsula Utama 1, Peninsula Park","brand":"Mobile Windscreen","name":"MOBILE WINDSCREEN (KUALA SELANGOR)","operator":"MOBILE WINDSCREEN (KUALA SELANGOR)","phone":"+6013-833 3038","service:vehicle:car_repair":"yes","service:vehicle:glass_repair":"yes","shop":"car_repair"},"geometry":{"type":"Point","coordinates":[101.2552222,3.3493637]},"id":"node/13031957693"},{"type":"Feature","properties":{"@id":"node/13031966102","addr:city":"Shah Alam,Selangor","addr:housenumber":"74","addr:postcode":"40100","addr:street":"Jalan Renang 13/26, Seksyen 13","brand":"Mobile Windscreen","email":"info@mobilewindscreen.com.my","name":"MOBILE WINDSCREEN (SHAH ALAM)","phone":"+6013-833 3038","service:vehicle:car_repair":"yes","service:vehicle:glass_repair":"yes","shop":"car_repair","website":"https://myhighst.com.my/business/listing/mobile-windscreen-shah-alam"},"geometry":{"type":"Point","coordinates":[101.5447892,3.0904578]},"id":"node/13031966102"},{"type":"Feature","properties":{"@id":"node/13031970267","addr:city":"Hang Tuah Jaya, Melaka","addr:housenumber":"2","addr:postcode":"75350","addr:street":"Jalan BB 19, Taman Banchang Baru,","brand":"Mobile Windscreen","name":"MOBILE WINDSCREEN (BACHANG MELAKA)","phone":"+6013-833 3038","service:vehicle:car_repair":"yes","service:vehicle:glass_repair":"yes","shop":"car_repair"},"geometry":{"type":"Point","coordinates":[102.2476802,2.2366302]},"id":"node/13031970267"},{"type":"Feature","properties":{"@id":"node/13031986857","addr:city":"Iskandar Puteri,Johor","addr:housenumber":"16","addr:postcode":"79150","addr:street":"Jalan Bestari 8/5, Taman Nusa Bestari,","brand":"Mobile Windscreen","email":"info@mobilewindscreen.com.my","name":"MOBILE WINDSCREEN (ISKANDAR PUTERI)","operator":"MOBILE WINDSCREEN (ISKANDAR PUTERI)","phone":"+6013-833 3038","service:vehicle:car_repair":"yes","service:vehicle:glass_repair":"yes","shop":"car_repair","website":"https://myhighst.com.my/business/listing/mobile-windscreen-iskandar-puteri"},"geometry":{"type":"Point","coordinates":[103.6560285,1.4966047]},"id":"node/13031986857"},{"type":"Feature","properties":{"@id":"node/13031991864","addr:city":"Kemaman, Terengganu","addr:housenumber":"21689","addr:postcode":"24000","addr:street":"Jalan Kubang Kurus 2","brand":"Mobile Windscreen","email":"info@mobilewindscreen.com.my","name":"MOBILE WINDSCREEN (KEMAMAN)","operator":"MOBILE WINDSCREEN (KEMAMAN)","phone":"+6013-833 3038","service:vehicle:car_repair":"yes","service:vehicle:glass_repair":"yes","shop":"car_repair","website":"https://myhighst.com.my/business/listing/mobile-windscreen-kemaman-terengganu"},"geometry":{"type":"Point","coordinates":[103.4231643,4.2188997]},"id":"node/13031991864"},{"type":"Feature","properties":{"@id":"node/13031994385","addr:city":"Alor Gajah,Melaka","addr:housenumber":"30","addr:postcode":"78000","addr:street":"Jalan Sungai Petai Permai 2 Utama","brand":"Mobile Windscreen","email":"info@mobilewindscreen.com.my","name":"MOBILE WINDSCREEN (ALOR GAJAH MELAKA)","operator":"MOBILE WINDSCREEN (ALOR GAJAH MELAKA)","phone":"+6013-833 3038","service:vehicle:car_repair":"yes","service:vehicle:glass_repair":"yes","shop":"car_repair","website":"https://myhighst.com.my/business/search?search=Alor+Gajah&btn=Keywords"},"geometry":{"type":"Point","coordinates":[102.2163824,2.3644805]},"id":"node/13031994385"},{"type":"Feature","properties":{"@id":"node/13031996199","addr:city":"Kuala Lumpur","addr:housenumber":"54","addr:postcode":"53300","addr:street":"Jalan 1/23A, Taman Danau Kota, Off Jalan Genting Klang","brand":"Mobile Windscreen","email":"info@mobilewindscreen.com.my","name":"MOBILE WINDSCREEN (SETAPAK)","operator":"MOBILE WINDSCREEN (SETAPAK)","phone":"+6013-833 3038","service:vehicle:car_repair":"yes","service:vehicle:glass_repair":"yes","shop":"car_repair","website":"https://myhighst.com.my/business/listing/mobile-windscreen-setapak"},"geometry":{"type":"Point","coordinates":[101.720554,3.2018082]},"id":"node/13031996199"},{"type":"Feature","properties":{"@id":"node/13032003117","addr:city":"Klang,Selangor","addr:housenumber":"G10","addr:postcode":"41200","addr:street":"KSL Esplanade Mall, No. 1, Persiaran Bestari 2/KS09, Bandar Bestari,","brand":"Mobile Windscreen","name":"MOBILE WINDSCREEN (KSL ESPLANADE MALL)","operator":"MOBILE WINDSCREEN (KSL ESPLANADE MALL)","phone":"+6013-833 3038","service:vehicle:car_repair":"yes","service:vehicle:glass_repair":"yes","shop":"car_repair"},"geometry":{"type":"Point","coordinates":[101.4673582,2.9573307]},"id":"node/13032003117"},{"type":"Feature","properties":{"@id":"node/13032025533","addr:city":"Sungai Petani,Kedah","addr:housenumber":"19","addr:postcode":"08000","addr:street":"Lorong 8, Taman Sejati Indah","brand":"Mobile Windscreen","email":"info@mobilewindscreen.com.my","name":"MOBILE WINDSCREEN (SUNGAI PETANI)","operator":"MOBILE WINDSCREEN (SUNGAI PETANI)","phone":"+6013-833 3038","service:vehicle:car_repair":"yes","service:vehicle:glass_repair":"yes","shop":"car_repair","website":"https://myhighst.com.my/business/listing/mobile-windscreen-sungai-petani-kedah"},"geometry":{"type":"Point","coordinates":[100.4844496,5.6146287]},"id":"node/13032025533"},{"type":"Feature","properties":{"@id":"node/13032052961","addr:city":"Kuala Lumpur","addr:housenumber":"24","addr:postcode":"53300","addr:street":"Jalan Wangsa Setia 4, Wangsa Melawati","brand":"Mobile Windscreen","email":"info@mobilewindscreen.com.my","name":"MOBILE WINDSCREEN (WANGSA MAJU)","operator":"MOBILE WINDSCREEN (WANGSA MAJU)","phone":"+6013-833 3038","service:vehicle:car_repair":"yes","service:vehicle:glass_repair":"yes","shop":"car_repair","website":"https://myhighst.com.my/business/listing/mobile-windscreen-wangsa-maju"},"geometry":{"type":"Point","coordinates":[101.7445567,3.2087017]},"id":"node/13032052961"},{"type":"Feature","properties":{"@id":"node/13033099245","amenity":"grave_yard","religion":"christian"},"geometry":{"type":"Point","coordinates":[116.4700826,6.3448363]},"id":"node/13033099245"},{"type":"Feature","properties":{"@id":"node/13033131391","addr:city":"Kota Belud","addr:place":"Kampung Tambulion","addr:postcode":"89157","amenity":"grave_yard","religion":"muslim"},"geometry":{"type":"Point","coordinates":[116.4773154,6.3420931]},"id":"node/13033131391"},{"type":"Feature","properties":{"@id":"node/13033161775","name":"Seri Megah Industries Sdn. Bhd.","shop":"hardware"},"geometry":{"type":"Point","coordinates":[111.4635868,1.2374557]},"id":"node/13033161775"},{"type":"Feature","properties":{"@id":"node/13033161776","name":"JL Hair Saloon","shop":"hairdresser"},"geometry":{"type":"Point","coordinates":[111.4635706,1.2374788]},"id":"node/13033161776"},{"type":"Feature","properties":{"@id":"node/13033161777","name":"Pusat Servis Motosikal Lik Seng","shop":"motorcycle_repair"},"geometry":{"type":"Point","coordinates":[111.4635536,1.2375096]},"id":"node/13033161777"},{"type":"Feature","properties":{"@id":"node/13033171672","female":"yes","male":"yes","name":"Ji Jine Mei","shop":"hairdresser"},"geometry":{"type":"Point","coordinates":[111.4641586,1.2367671]},"id":"node/13033171672"},{"type":"Feature","properties":{"@id":"node/13033171673","amenity":"clinic","healthcare":"clinic","name":"Kuching Specialist Hospital"},"geometry":{"type":"Point","coordinates":[111.4640946,1.2368545]},"id":"node/13033171673"},{"type":"Feature","properties":{"@id":"node/13033171674","name":"KS Mart","shop":"convenience"},"geometry":{"type":"Point","coordinates":[111.4640722,1.2368789]},"id":"node/13033171674"},{"type":"Feature","properties":{"@id":"node/13033171675","name":"Genesis IT","shop":"computer"},"geometry":{"type":"Point","coordinates":[111.4640478,1.2369094]},"id":"node/13033171675"},{"type":"Feature","properties":{"@id":"node/13033181509","amenity":"pharmacy","healthcare":"pharmacy","name":"Sing Lee Tong Drug Store"},"geometry":{"type":"Point","coordinates":[111.4632938,1.2378019]},"id":"node/13033181509"},{"type":"Feature","properties":{"@id":"node/13033181510","branch":"Sri Aman","brand":"Cosway","brand:wikidata":"Q15916839","name":"Cosway","shop":"convenience"},"geometry":{"type":"Point","coordinates":[111.4632321,1.2378783]},"id":"node/13033181510"},{"type":"Feature","properties":{"@id":"node/13033181511","name":"Syarikat Golden Trading","shop":"repair"},"geometry":{"type":"Point","coordinates":[111.4631476,1.2379896]},"id":"node/13033181511"},{"type":"Feature","properties":{"@id":"node/13033190606","name":"Ayam Champion","shop":"butcher"},"geometry":{"type":"Point","coordinates":[111.4628673,1.2383717]},"id":"node/13033190606"},{"type":"Feature","properties":{"@id":"node/13033190607","name":"DJ Hair Saloon","shop":"hairdresser"},"geometry":{"type":"Point","coordinates":[111.4628298,1.2383569]},"id":"node/13033190607"},{"type":"Feature","properties":{"@id":"node/13033236953","amenity":"community_centre","community_centre":"village_hall","name":"Dewan Kampung Siasai Tamu"},"geometry":{"type":"Point","coordinates":[116.4373105,6.3468805]},"id":"node/13033236953"},{"type":"Feature","properties":{"@id":"node/13033254071","amenity":"ice_cream","name":"Waterfront Ice Cream"},"geometry":{"type":"Point","coordinates":[111.4630417,1.2381384]},"id":"node/13033254071"},{"type":"Feature","properties":{"@id":"node/13033276796","addr:city":"Kota Belud","addr:postcode":"89150","addr:street":"Kota Belud Ranau Bypass","name":"Kota Belud Hotel","tourism":"hotel"},"geometry":{"type":"Point","coordinates":[116.4323603,6.3471501]},"id":"node/13033276796"},{"type":"Feature","properties":{"@id":"node/13033279864","name":"Zeekr","opening_hours":"Mo-Su 09:00-19:00","phone":"+60350214663","shop":"car","website":"https://www.zeekr.my/"},"geometry":{"type":"Point","coordinates":[101.6103958,3.0709488]},"id":"node/13033279864"},{"type":"Feature","properties":{"@id":"node/13033298690","amenity":"bench","bench":"swing"},"geometry":{"type":"Point","coordinates":[101.6685149,3.2148476]},"id":"node/13033298690"},{"type":"Feature","properties":{"@id":"node/13033301550","addr:unit":"C-05","amenity":"restaurant","cuisine":"organic","name":"Salad Atelier","name:en":"Salad Atelier","opening_hours":"Mo-Su 10:30-21:30","phone":"+60162791561","website":"https://www.saladatelier.com/"},"geometry":{"type":"Point","coordinates":[101.7138649,3.1532828]},"id":"node/13033301550"},{"type":"Feature","properties":{"@id":"node/13033303190","addr:city":"Kota Belud","addr:housenumber":"Surau Al ihsaniyyah Kampung Siasai","addr:postcode":"89150","addr:street":"Jalan Tamu","amenity":"place_of_worship","denomination":"muslim","name":"Surau Al Ihsaniyyah Kampung Siasai","religion":"muslim"},"geometry":{"type":"Point","coordinates":[116.4359539,6.3463731]},"id":"node/13033303190"},{"type":"Feature","properties":{"@id":"node/13033314849","amenity":"waste_basket"},"geometry":{"type":"Point","coordinates":[101.6684937,3.2147039]},"id":"node/13033314849"},{"type":"Feature","properties":{"@id":"node/13033330809","amenity":"fast_food","cuisine":"burger","facebook":"https://m.facebook.com/profile.php?id=205474012805007&_rdc=1&_rdr","fast_food":"street_kitchen","name":"Pos Burger","opening_hours":"Mo-Sa 18:00-01:00","phone":"+601124102930"},"geometry":{"type":"Point","coordinates":[100.3124862,5.3872424]},"id":"node/13033330809"},{"type":"Feature","properties":{"@id":"node/13033338651","addr:city":"Kuala Lumpur","addr:housenumber":"14","addr:postcode":"60000","addr:street":"Jalan Wan Kadir 1","amenity":"restaurant","check_date":"2025-07-29","check_date:currency:XBT":"2025-07-29","cuisine":"malaysian;kopitiam","currency:XBT":"yes","diet:halal":"yes","name":"Kedai Kopi Xiong Wor","opening_hours":"Tu-Su 08:00-14:00","payment:lightning":"yes","payment:lightning_contactless":"no","payment:onchain":"yes","phone":"+60162713791"},"geometry":{"type":"Point","coordinates":[101.6298177,3.1392439]},"id":"node/13033338651"},{"type":"Feature","properties":{"@id":"node/13033389071","addr:unit":"C-08","amenity":"restaurant","cuisine":"asian;fusion","name":"Pokok KLCC Lot 91","name:en":"Pokok KLCC Lot 91","opening_hours":"Mo-Su 08:00-20:00","outdoor_seating":"yes","phone":"+60163616728","website":"https://brickhouse.my/"},"geometry":{"type":"Point","coordinates":[101.7140524,3.1531051]},"id":"node/13033389071"},{"type":"Feature","properties":{"@id":"node/13033395922","name":"Stumbin","place":"town","population":"1000"},"geometry":{"type":"Point","coordinates":[111.3842382,1.3012851]},"id":"node/13033395922"},{"type":"Feature","properties":{"@id":"node/13033395923","name":"Rumah Florence Stumbin","place":"village","population":"200"},"geometry":{"type":"Point","coordinates":[111.383455,1.3004592]},"id":"node/13033395923"},{"type":"Feature","properties":{"@id":"node/13033395924","amenity":"school","grades":"1-6","name":"Sekolah Kebangsaan (SK) Stumbin","operator":"Kementerian Pendidikan Malaysia","operator:en":"Ministry of Education","operator:ms":"Kementerian Pendidikan Malaysia","operator:short":"KPM","operator:ta":"மலேசிய கல்வி அமைச்சகம்","operator:type":"government","operator:wikidata":"Q3816079","operator:zh":"马来西亚教育部","operator:zh-Hans":"马来西亚教育部","operator:zh-Hant":"馬來西亞教育部","operator:zh-Latn-pinyin":"Mǎláixīyà jiàoyùbù"},"geometry":{"type":"Point","coordinates":[111.3849087,1.2969357]},"id":"node/13033395924"},{"type":"Feature","properties":{"@id":"node/13033406734","addr:housenumber":"Wdt 161","addr:street":"Sekolah Kebangsaan Pekan Kota Belud","amenity":"school","name":"SK Pekan Kota Belud","religion":"multifaith"},"geometry":{"type":"Point","coordinates":[116.426765,6.3439079]},"id":"node/13033406734"},{"type":"Feature","properties":{"@id":"node/13033437978","addr:city":"Kuala Lumpur","addr:housenumber":"12A","addr:postcode":"60000","addr:street":"Lorong Datuk Sulaiman 1","amenity":"restaurant","check_date":"2025-07-29","check_date:currency:XBT":"2025-07-29","cuisine":"malaysian;thai;coffee_shop","currency:XBT":"yes","diet:halal":"yes","name":"Aperture","opening_hours":"Th-Tu 08:30-18:00","payment:lightning":"yes","payment:lightning_contactless":"no","payment:onchain":"yes","phone":"+0377331556","website":"https://aperture.beepit.com/"},"geometry":{"type":"Point","coordinates":[101.6298585,3.1491311]},"id":"node/13033437978"},{"type":"Feature","properties":{"@id":"node/13033445017","amenity":"fast_food","name":"Parking Cafe"},"geometry":{"type":"Point","coordinates":[101.4775872,3.0324252]},"id":"node/13033445017"},{"type":"Feature","properties":{"@id":"node/13033445018","shop":"convenience"},"geometry":{"type":"Point","coordinates":[101.4773651,3.0327603]},"id":"node/13033445018"},{"type":"Feature","properties":{"@id":"node/13036440344","addr:city":"Simanggang","addr:housenumber":"Lot 998,","addr:postcode":"95000","addr:street":"Jalan Munggu Sabun","amenity":"restaurant","cuisine":"seafood","name":"99 Seafood"},"geometry":{"type":"Point","coordinates":[111.4672951,1.2268819]},"id":"node/13036440344"},{"type":"Feature","properties":{"@id":"node/13036443283","name":"Nanga Telaus","place":"village","population":"100"},"geometry":{"type":"Point","coordinates":[111.8156794,1.1451092]},"id":"node/13036443283"},{"type":"Feature","properties":{"@id":"node/13036443284","name":"Nanga Jela","place":"village","population":"100"},"geometry":{"type":"Point","coordinates":[111.8182244,1.1459547]},"id":"node/13036443284"},{"type":"Feature","properties":{"@id":"node/13036451889","name":"Lok Seng Motor Repair and Service Centre","shop":"car_repair"},"geometry":{"type":"Point","coordinates":[111.364477,1.7805166]},"id":"node/13036451889"},{"type":"Feature","properties":{"@id":"node/13036457153","amenity":"restaurant","name":"Kedai Makan Jali Golok"},"geometry":{"type":"Point","coordinates":[102.1699829,6.1926115]},"id":"node/13036457153"},{"type":"Feature","properties":{"@id":"node/13036457159","amenity":"restaurant","name":"Roti Canai Na","phone":"0174962930"},"geometry":{"type":"Point","coordinates":[102.2269204,6.1568205]},"id":"node/13036457159"},{"type":"Feature","properties":{"@id":"node/13036457167","amenity":"restaurant","name":"D’Cafe","phone":"0148677484"},"geometry":{"type":"Point","coordinates":[102.2269306,6.156866]},"id":"node/13036457167"},{"type":"Feature","properties":{"@id":"node/13036530386","addr:city":"Johor Bahru","addr:housenumber":"L1-122","addr:postcode":"80250","addr:street":"Level 1, KSL City Mall, 33, Jalan Seladang, Taman Century","brand":"REDS","contact:facebook":"https://www.facebook.com/profile.php?id=61577851840305","name":"REDS Hair Salon JB | KSL City Mall","opening_hours":"Mo-Su 10:00-22:00","operator":"REDS Hair Salon","payment:cash":"yes","payment:credit_cards":"yes","payment:debit_cards":"yes","payment:mastercard":"yes","payment:visa":"yes","phone":"+601188887643","shop":"hairdresser","website":"https://www.redshair-salon.com.my/locations/ksl-hair-salon/"},"geometry":{"type":"Point","coordinates":[103.7623367,1.4854673]},"id":"node/13036530386"},{"type":"Feature","properties":{"@id":"node/13036604333","amenity":"parking_entrance"},"geometry":{"type":"Point","coordinates":[101.563699,3.0707847]},"id":"node/13036604333"},{"type":"Feature","properties":{"@id":"node/13036809096","addr:housenumber":"16;17","addr:street":"Jalan 2","amenity":"restaurant","name":"Hussain’s Cinta Sayang"},"geometry":{"type":"Point","coordinates":[100.5303535,5.6667453]},"id":"node/13036809096"},{"type":"Feature","properties":{"@id":"node/13036892301","amenity":"shelter","shelter_type":"gazebo"},"geometry":{"type":"Point","coordinates":[102.2313084,6.1155343]},"id":"node/13036892301"},{"type":"Feature","properties":{"@id":"node/13036892302","amenity":"shelter","shelter_type":"gazebo"},"geometry":{"type":"Point","coordinates":[102.2323477,6.1153563]},"id":"node/13036892302"},{"type":"Feature","properties":{"@id":"node/13037313662","amenity":"restaurant","name":"Luca’s Panzerotti"},"geometry":{"type":"Point","coordinates":[100.3362328,5.4177459]},"id":"node/13037313662"},{"type":"Feature","properties":{"@id":"node/13037313664","amenity":"restaurant","name":"Che Che Cafe"},"geometry":{"type":"Point","coordinates":[100.3360132,5.4175914]},"id":"node/13037313664"},{"type":"Feature","properties":{"@id":"node/13037313665","addr:housenumber":"39","amenity":"cafe","brand":"Chagee","brand:wikidata":"Q125052867","cuisine":"bubble_tea","name":"Chagee","takeaway":"yes"},"geometry":{"type":"Point","coordinates":[100.333688,5.4156197]},"id":"node/13037313665"},{"type":"Feature","properties":{"@id":"node/13038496596","amenity":"community_centre","name":"Kereta Sewa Smart Rawang","phone":"019-535 3543","website":"https://www.gogreenmatrix.com/?jis=2170"},"geometry":{"type":"Point","coordinates":[101.5189798,3.3348107]},"id":"node/13038496596"},{"type":"Feature","properties":{"@id":"node/13038501001","name":"Cott on","shop":"clothes"},"geometry":{"type":"Point","coordinates":[101.6775652,2.7788874]},"id":"node/13038501001"},{"type":"Feature","properties":{"@id":"node/13038524488","shop":"yes"},"geometry":{"type":"Point","coordinates":[102.2340942,6.1316488]},"id":"node/13038524488"},{"type":"Feature","properties":{"@id":"node/13038537001","amenity":"restaurant","name":"Restoran Canton Route","name:zh":"廣東道"},"geometry":{"type":"Point","coordinates":[103.7761089,1.5611734]},"id":"node/13038537001"},{"type":"Feature","properties":{"@id":"node/13038537101","name":"Jynns","shop":"health_food"},"geometry":{"type":"Point","coordinates":[103.7766102,1.5613404]},"id":"node/13038537101"},{"type":"Feature","properties":{"@id":"node/13038538003","addr:housenumber":"32","addr:street":"Jalan Todak 2","name":"Salim Wahab Muslim House","shop":"clothes"},"geometry":{"type":"Point","coordinates":[100.398869,5.3969632]},"id":"node/13038538003"},{"type":"Feature","properties":{"@id":"node/13038538005","addr:street":"Jalan Todak 2","amenity":"restaurant","name":"Kalpasi Curry House"},"geometry":{"type":"Point","coordinates":[100.3988123,5.3965865]},"id":"node/13038538005"},{"type":"Feature","properties":{"@id":"node/13038538006","amenity":"restaurant","name":"Nasi Kandar N’Siti Maju"},"geometry":{"type":"Point","coordinates":[100.3978371,5.3961019]},"id":"node/13038538006"},{"type":"Feature","properties":{"@id":"node/13038538007","addr:street":"Jalan Todak 2","name":"Kedai Wahab","shop":"clothes"},"geometry":{"type":"Point","coordinates":[100.398888,5.3971421]},"id":"node/13038538007"},{"type":"Feature","properties":{"@id":"node/13038538010","addr:street":"Jalan Todak 2","amenity":"pharmacy","healthcare":"pharmacy","name":"VE Care Pharmacy"},"geometry":{"type":"Point","coordinates":[100.3988821,5.397081]},"id":"node/13038538010"},{"type":"Feature","properties":{"@id":"node/13038538013","addr:street":"Jalan Todak 2","name":"MediFeet","shop":"medical_supply"},"geometry":{"type":"Point","coordinates":[100.3987625,5.3961687]},"id":"node/13038538013"},{"type":"Feature","properties":{"@id":"node/13038538018","addr:street":"Jalan Todak 2","amenity":"restaurant","name":"Nasi Kandar Ayam Bawang Rashid"},"geometry":{"type":"Point","coordinates":[100.3989163,5.3973763]},"id":"node/13038538018"},{"type":"Feature","properties":{"@id":"node/13038538020","addr:street":"Jalan Todak 2","name":"YK Optical","shop":"optician"},"geometry":{"type":"Point","coordinates":[100.3988217,5.3966441]},"id":"node/13038538020"},{"type":"Feature","properties":{"@id":"node/13038538023","addr:housenumber":"31","addr:street":"Jalan Todak 2","name":"Emart 24","shop":"convenience"},"geometry":{"type":"Point","coordinates":[100.3988758,5.3970219]},"id":"node/13038538023"},{"type":"Feature","properties":{"@id":"node/13038538030","amenity":"restaurant","name":"Family Satay Delights","opening_hours":"Mo-Su 07:00-23:00","phone":"010-363 4174"},"geometry":{"type":"Point","coordinates":[101.5184945,3.3346946]},"id":"node/13038538030"},{"type":"Feature","properties":{"@id":"node/13038556877","amenity":"fast_food","name":"Duo Churros","opening_hours":"Mo, We, Fr-Su 11:30-18:30"},"geometry":{"type":"Point","coordinates":[101.518548,3.3351448]},"id":"node/13038556877"},